,STATION,DATE,LATITUDE,LONGITUDE,ELEVATION,NAME,DP01,DP01_ATTRIBUTES,DP10,DP10_ATTRIBUTES,DP1X,DP1X_ATTRIBUTES,DSNW,DSNW_ATTRIBUTES,DYSN,DYSN_ATTRIBUTES,DYXP,DYXP_ATTRIBUTES,EMSN,EMSN_ATTRIBUTES,EMXP,EMXP_ATTRIBUTES,PRCP,PRCP_ATTRIBUTES,SNOW,SNOW_ATTRIBUTES,DSND,DSND_ATTRIBUTES,DYSD,DYSD_ATTRIBUTES,EMSD,EMSD_ATTRIBUTES,CDSD,CDSD_ATTRIBUTES,CLDD,CLDD_ATTRIBUTES,DT00,DT00_ATTRIBUTES,DT32,DT32_ATTRIBUTES,DX32,DX32_ATTRIBUTES,DX70,DX70_ATTRIBUTES,DX90,DX90_ATTRIBUTES,DYNT,DYNT_ATTRIBUTES,DYXT,DYXT_ATTRIBUTES,EMNT,EMNT_ATTRIBUTES,EMXT,EMXT_ATTRIBUTES,HDSD,HDSD_ATTRIBUTES,HTDD,HTDD_ATTRIBUTES,TAVG,TAVG_ATTRIBUTES,TMAX,TMAX_ATTRIBUTES,TMIN,TMIN_ATTRIBUTES,DYFG,DYFG_ATTRIBUTES,DYTS,DYTS_ATTRIBUTES,EVAP,EVAP_ATTRIBUTES,WDMV,WDMV_ATTRIBUTES,HN01,HN01_ATTRIBUTES,HN02,HN02_ATTRIBUTES,HN03,HN03_ATTRIBUTES,HX01,HX01_ATTRIBUTES,HX02,HX02_ATTRIBUTES,HX03,HX03_ATTRIBUTES,LN01,LN01_ATTRIBUTES,LN02,LN02_ATTRIBUTES,LN03,LN03_ATTRIBUTES,LX01,LX01_ATTRIBUTES,LX02,LX02_ATTRIBUTES,LX03,LX03_ATTRIBUTES,MN01,MN01_ATTRIBUTES,MN02,MN02_ATTRIBUTES,MN03,MN03_ATTRIBUTES,MNPN,MNPN_ATTRIBUTES,MX01,MX01_ATTRIBUTES,MX02,MX02_ATTRIBUTES,MX03,MX03_ATTRIBUTES,MXPN,MXPN_ATTRIBUTES,WSFG,WSFG_ATTRIBUTES,AWND,AWND_ATTRIBUTES,DYHF,DYHF_ATTRIBUTES,WDF2,WDF2_ATTRIBUTES,WDF5,WDF5_ATTRIBUTES,WSF2,WSF2_ATTRIBUTES,WSF5,WSF5_ATTRIBUTES,WDF1,WDF1_ATTRIBUTES,WSF1,WSF1_ATTRIBUTES,WDFG,WDFG_ATTRIBUTES,PSUN,PSUN_ATTRIBUTES,TSUN,TSUN_ATTRIBUTES,WDFM,WDFM_ATTRIBUTES,WSFM,WSFM_ATTRIBUTES,HN04,HN04_ATTRIBUTES,HN05,HN05_ATTRIBUTES,HX04,HX04_ATTRIBUTES,HX05,HX05_ATTRIBUTES,LN04,LN04_ATTRIBUTES,LN05,LN05_ATTRIBUTES,LX04,LX04_ATTRIBUTES,LX05,LX05_ATTRIBUTES,MN04,MN04_ATTRIBUTES,MN05,MN05_ATTRIBUTES,MX04,MX04_ATTRIBUTES,MX05,MX05_ATTRIBUTES,HN06,HN06_ATTRIBUTES,HX06,HX06_ATTRIBUTES,LN06,LN06_ATTRIBUTES,LX06,LX06_ATTRIBUTES,MN06,MN06_ATTRIBUTES,MX06,MX06_ATTRIBUTES,HN07,HN07_ATTRIBUTES,HN08,HN08_ATTRIBUTES,HX07,HX07_ATTRIBUTES,HX08,HX08_ATTRIBUTES,LN07,LN07_ATTRIBUTES,LN08,LN08_ATTRIBUTES,LX07,LX07_ATTRIBUTES,LX08,LX08_ATTRIBUTES,MN07,MN07_ATTRIBUTES,MN08,MN08_ATTRIBUTES,MX07,MX07_ATTRIBUTES,MX08,MX08_ATTRIBUTES
0,US1TXVC0015,2010-03,28.8446667,-97.163211,56.7,"VICTORIA 11.0 W, TX US",6.0,",N",5.0,",N",0.0,",N",,,,,20100321.0,",,N",,,24.1,",,N,21,",47.0,",,,N",,,,,,,,,,,,,,,,,,,,,,,,,,,,,,,,,,,,,,,,,,,,,,,,,,,,,,,,,,,,,,,,,,,,,,,,,,,,,,,,,,,,,,,,,,,,,,,,,,,,,,,,,,,,,,,,,,,,,,,,,,,,,,,,,,,,,,,,,,,,,,,,,,,,,,,,,,,,,,,,,,,,,,,,,,,,,,,,
1,US1TXVC0017,2010-04,28.8537,-96.9903,33.2,"VICTORIA 2.1 NNW, TX US",6.0,",N",2.0,",N",1.0,",N",,,,,20100417.0,",,N",,,32.8,",,N,17,",42.3,",,,N",,,,,,,,,,,,,,,,,,,,,,,,,,,,,,,,,,,,,,,,,,,,,,,,,,,,,,,,,,,,,,,,,,,,,,,,,,,,,,,,,,,,,,,,,,,,,,,,,,,,,,,,,,,,,,,,,,,,,,,,,,,,,,,,,,,,,,,,,,,,,,,,,,,,,,,,,,,,,,,,,,,,,,,,,,,,,,,,
2,US1TXVC0020,2010-07,28.778986,-96.831036,18.3,"VICTORIA 9.7 ESE, TX US",17.0,"3,N",12.0,"3,N",5.0,"3,N",,,,,20100702.0,",3,N",,,66.5,"3,,N,02,",258.4,"3,,,N",,,,,,,,,,,,,,,,,,,,,,,,,,,,,,,,,,,,,,,,,,,,,,,,,,,,,,,,,,,,,,,,,,,,,,,,,,,,,,,,,,,,,,,,,,,,,,,,,,,,,,,,,,,,,,,,,,,,,,,,,,,,,,,,,,,,,,,,,,,,,,,,,,,,,,,,,,,,,,,,,,,,,,,,,,,,,,,,
3,US1TXVC0021,2010-07,28.659784,-97.118868,32.3,"VICTORIA 14.0 SW, TX US",16.0,",N",12.0,",N",5.0,",N",,,,,20100709.0,",,N",,,56.1,",,N,09,",246.1,",,,N",,,,,,,,,,,,,,,,,,,,,,,,,,,,,,,,,,,,,,,,,,,,,,,,,,,,,,,,,,,,,,,,,,,,,,,,,,,,,,,,,,,,,,,,,,,,,,,,,,,,,,,,,,,,,,,,,,,,,,,,,,,,,,,,,,,,,,,,,,,,,,,,,,,,,,,,,,,,,,,,,,,,,,,,,,,,,,,,
4,US1TXVC0022,2011-02,28.8421,-97.18231667,49.4,"VICTORIA 12.1 W, TX US",6.0,"1,N",1.0,"1,N",0.0,"1,N",,,,,20110209.0,",1,N",,,2.8,"1,,N,09,",8.4,"1,,,N",,,,,,,,,,,,,,,,,,,,,,,,,,,,,,,,,,,,,,,,,,,,,,,,,,,,,,,,,,,,,,,,,,,,,,,,,,,,,,,,,,,,,,,,,,,,,,,,,,,,,,,,,,,,,,,,,,,,,,,,,,,,,,,,,,,,,,,,,,,,,,,,,,,,,,,,,,,,,,,,,,,,,,,,,,,,,,,,
5,US1TXVC0023,2011-05,28.822097,-97.012872,25.6,"VICTORIA 1.8 W, TX US",4.0,"5,N",2.0,"5,N",1.0,"5,N",,,,,20110513.0,",5,N",,,35.1,"5,,N,13,",39.1,"5,,,N",,,,,,,,,,,,,,,,,,,,,,,,,,,,,,,,,,,,,,,,,,,,,,,,,,,,,,,,,,,,,,,,,,,,,,,,,,,,,,,,,,,,,,,,,,,,,,,,,,,,,,,,,,,,,,,,,,,,,,,,,,,,,,,,,,,,,,,,,,,,,,,,,,,,,,,,,,,,,,,,,,,,,,,,,,,,,,,,
6,US1TXVC0024,2012-02,28.88111111,-96.82333333,20.1,"INEZ 1.8 WNW, TX US",,,,,,,,,,,,,,,,,90.8,"4,a,,N",,,,,,,,,,,,,,,,,,,,,,,,,,,,,,,,,,,,,,,,,,,,,,,,,,,,,,,,,,,,,,,,,,,,,,,,,,,,,,,,,,,,,,,,,,,,,,,,,,,,,,,,,,,,,,,,,,,,,,,,,,,,,,,,,,,,,,,,,,,,,,,,,,,,,,,,,,,,,,,,,,,,,,,,,,,,,,,,
7,US1TXVC0025,2012-08,28.748411,-97.113392,29.3,"VICTORIA 9.5 WSW, TX US",6.0,",N",5.0,",N",0.0,",N",,,,,20120823.0,",,N",,,12.7,",,N,23,",29.2,",,,N",,,,,,,,,,,,,,,,,,,,,,,,,,,,,,,,,,,,,,,,,,,,,,,,,,,,,,,,,,,,,,,,,,,,,,,,,,,,,,,,,,,,,,,,,,,,,,,,,,,,,,,,,,,,,,,,,,,,,,,,,,,,,,,,,,,,,,,,,,,,,,,,,,,,,,,,,,,,,,,,,,,,,,,,,,,,,,,,
8,US1TXVC0026,2013-05,28.8644,-97.0254,30.2,"VICTORIA 3.8 NW, TX US",10.0,"1,N",3.0,"1,N",1.0,"1,N",,,,,20130526.0,",1,N",,,41.7,"1,,N,26,",54.3,"1,,,N",,,,,,,,,,,,,,,,,,,,,,,,,,,,,,,,,,,,,,,,,,,,,,,,,,,,,,,,,,,,,,,,,,,,,,,,,,,,,,,,,,,,,,,,,,,,,,,,,,,,,,,,,,,,,,,,,,,,,,,,,,,,,,,,,,,,,,,,,,,,,,,,,,,,,,,,,,,,,,,,,,,,,,,,,,,,,,,,
9,US1TXVC0027,2012-10,28.927868,-97.100785,40.2,"NURSERY 0.4 NNW, TX US",5.0,"2,N",2.0,"2,N",0.0,"2,N",,,,,20121023.0,",2,N",,,6.6,"2,,N,23,",14.8,"2,,,N",,,,,,,,,,,,,,,,,,,,,,,,,,,,,,,,,,,,,,,,,,,,,,,,,,,,,,,,,,,,,,,,,,,,,,,,,,,,,,,,,,,,,,,,,,,,,,,,,,,,,,,,,,,,,,,,,,,,,,,,,,,,,,,,,,,,,,,,,,,,,,,,,,,,,,,,,,,,,,,,,,,,,,,,,,,,,,,,
10,US1TXVC0029,2013-01,28.7476348876953,-97.1129150390625,29.3,"VICTORIA 9.5 SW, TX US",13.0,"2,N",6.0,"2,N",1.0,"2,N",,,,,20130109.0,",2,N",,,104.1,"2,,N,09,",136.6,"2,,,N",,,,,,,,,,,,,,,,,,,,,,,,,,,,,,,,,,,,,,,,,,,,,,,,,,,,,,,,,,,,,,,,,,,,,,,,,,,,,,,,,,,,,,,,,,,,,,,,,,,,,,,,,,,,,,,,,,,,,,,,,,,,,,,,,,,,,,,,,,,,,,,,,,,,,,,,,,,,,,,,,,,,,,,,,,,,,,,,
11,US1TXVC0030,2020-05,28.80765,-96.98177,30.5,"VICTORIA 1.1 S, TX US",,,,,,,,,,,,,,,,,118.4,"4,a,,N",,,,,,,,,,,,,,,,,,,,,,,,,,,,,,,,,,,,,,,,,,,,,,,,,,,,,,,,,,,,,,,,,,,,,,,,,,,,,,,,,,,,,,,,,,,,,,,,,,,,,,,,,,,,,,,,,,,,,,,,,,,,,,,,,,,,,,,,,,,,,,,,,,,,,,,,,,,,,,,,,,,,,,,,,,,,,,,,
12,US1TXVC0033,2013-03,29.073329,-96.9716849,53.3,"VICTORIA 17.2 N, TX US",6.0,",N",1.0,",N",0.0,",N",,,,,20130310.0,",,N",,,7.6,",,N,10,",9.3,",,,N",,,,,,,,,,,,,,,,,,,,,,,,,,,,,,,,,,,,,,,,,,,,,,,,,,,,,,,,,,,,,,,,,,,,,,,,,,,,,,,,,,,,,,,,,,,,,,,,,,,,,,,,,,,,,,,,,,,,,,,,,,,,,,,,,,,,,,,,,,,,,,,,,,,,,,,,,,,,,,,,,,,,,,,,,,,,,,,,
13,US1TXVC0034,2013-05,28.74225,-97.0267686992884,18.6,"VICTORIA 6.4 SSW, TX US",4.0,",N",2.0,",N",1.0,",N",0.0,"4,N",20130531.0,"+,4,N",20130526.0,",,N",0.0,"4,,N,31,+",164.3,",,N,26,",168.6,",,,N",0.0,"4,,,N",,,,,,,,,,,,,,,,,,,,,,,,,,,,,,,,,,,,,,,,,,,,,,,,,,,,,,,,,,,,,,,,,,,,,,,,,,,,,,,,,,,,,,,,,,,,,,,,,,,,,,,,,,,,,,,,,,,,,,,,,,,,,,,,,,,,,,,,,,,,,,,,,,,,,,,,,,,,,,,,,,,,,,,,,,,,,,
14,US1TXVC0035,2013-05,28.8589839935303,-97.0047378540039,30.2,"VICTORIA 2.7 NNW, TX US",8.0,"1,N",3.0,"1,N",1.0,"1,N",,,,,20130525.0,",1,N",,,53.3,"1,,N,25,",67.0,"1,,,N",,,,,,,,,,,,,,,,,,,,,,,,,,,,,,,,,,,,,,,,,,,,,,,,,,,,,,,,,,,,,,,,,,,,,,,,,,,,,,,,,,,,,,,,,,,,,,,,,,,,,,,,,,,,,,,,,,,,,,,,,,,,,,,,,,,,,,,,,,,,,,,,,,,,,,,,,,,,,,,,,,,,,,,,,,,,,,,,
15,US1TXVC0037,2013-06,28.860295,-96.787646,16.8,"INEZ 1.1 SSE, TX US",6.0,"5,N",2.0,"5,N",0.0,"5,N",,,,,20130603.0,",5,N",,,15.2,"5,,N,03,",28.5,"5,,,N",,,,,,,,,,,,,,,,,,,,,,,,,,,,,,,,,,,,,,,,,,,,,,,,,,,,,,,,,,,,,,,,,,,,,,,,,,,,,,,,,,,,,,,,,,,,,,,,,,,,,,,,,,,,,,,,,,,,,,,,,,,,,,,,,,,,,,,,,,,,,,,,,,,,,,,,,,,,,,,,,,,,,,,,,,,,,,,,
16,US1TXVC0038,2013-07,28.8315448760986,-96.9857711791992,30.5,"VICTORIA 0.5 NNW, TX US",11.0,",N",7.0,",N",2.0,",N",,,,,20130708.0,",,N",,,28.4,",,N,08,",112.3,",,,N",,,,,,,,,,,,,,,,,,,,,,,,,,,,,,,,,,,,,,,,,,,,,,,,,,,,,,,,,,,,,,,,,,,,,,,,,,,,,,,,,,,,,,,,,,,,,,,,,,,,,,,,,,,,,,,,,,,,,,,,,,,,,,,,,,,,,,,,,,,,,,,,,,,,,,,,,,,,,,,,,,,,,,,,,,,,,,,,
17,US1TXVC0039,2013-10,28.8204078674316,-96.977409362793,30.2,"VICTORIA 0.4 SE, TX US",8.0,"4,N",6.0,"4,N",1.0,"4,N",,,,,20131014.0,",4,N",,,59.2,"4,,N,14,",97.1,"2,a,,N",,,,,,,,,,,,,,,,,,,,,,,,,,,,,,,,,,,,,,,,,,,,,,,,,,,,,,,,,,,,,,,,,,,,,,,,,,,,,,,,,,,,,,,,,,,,,,,,,,,,,,,,,,,,,,,,,,,,,,,,,,,,,,,,,,,,,,,,,,,,,,,,,,,,,,,,,,,,,,,,,,,,,,,,,,,,,,,,
18,US1TXVC0041,2014-03,28.847777,-97.00642,29.6,"VICTORIA 2.2 NW, TX US",10.0,"5,N",6.0,"5,N",0.0,"5,N",,,,,20140304.0,",5,N",,,14.2,"5,,N,04,",51.4,"5,,,N",,,,,,,,,,,,,,,,,,,,,,,,,,,,,,,,,,,,,,,,,,,,,,,,,,,,,,,,,,,,,,,,,,,,,,,,,,,,,,,,,,,,,,,,,,,,,,,,,,,,,,,,,,,,,,,,,,,,,,,,,,,,,,,,,,,,,,,,,,,,,,,,,,,,,,,,,,,,,,,,,,,,,,,,,,,,,,,,
19,US1TXVC0043,2014-04,28.8343448638916,-96.9569702148438,30.8,"VICTORIA 1.7 ENE, TX US",,,,,,,,,,,,,,,,,13.0,"5,a,,N",,,,,,,,,,,,,,,,,,,,,,,,,,,,,,,,,,,,,,,,,,,,,,,,,,,,,,,,,,,,,,,,,,,,,,,,,,,,,,,,,,,,,,,,,,,,,,,,,,,,,,,,,,,,,,,,,,,,,,,,,,,,,,,,,,,,,,,,,,,,,,,,,,,,,,,,,,,,,,,,,,,,,,,,,,,,,,,,
20,US1TXVC0044,2014-09,28.838994,-96.973326,32.3,"VICTORIA 1.2 NNE, TX US",15.0,",N",11.0,",N",0.0,",N",,,,,20140905.0,",,N",,,22.4,",,N,05,",115.9,",,,N",,,,,,,,,,,,,,,,,,,,,,,,,,,,,,,,,,,,,,,,,,,,,,,,,,,,,,,,,,,,,,,,,,,,,,,,,,,,,,,,,,,,,,,,,,,,,,,,,,,,,,,,,,,,,,,,,,,,,,,,,,,,,,,,,,,,,,,,,,,,,,,,,,,,,,,,,,,,,,,,,,,,,,,,,,,,,,,,
21,US1TXVC0049,2015-11,28.811458,-96.984062,30.5,"VICTORIA 0.9 S, TX US",15.0,"3,N",7.0,"3,N",0.0,"3,N",,,,,20151108.0,",3,N",,,14.7,"3,,N,08,",65.7,"3,,,N",,,,,,,,,,,,,,,,,,,,,,,,,,,,,,,,,,,,,,,,,,,,,,,,,,,,,,,,,,,,,,,,,,,,,,,,,,,,,,,,,,,,,,,,,,,,,,,,,,,,,,,,,,,,,,,,,,,,,,,,,,,,,,,,,,,,,,,,,,,,,,,,,,,,,,,,,,,,,,,,,,,,,,,,,,,,,,,,
22,US1TXVC0051,2018-05,28.885349,-97.012374,37.5,"VICTORIA 4.6 NNW, TX US",4.0,",N",1.0,",N",0.0,",N",,,,,20180521.0,",,N",,,2.8,",,N,21,",4.1,",,,N",,,,,,,,,,,,,,,,,,,,,,,,,,,,,,,,,,,,,,,,,,,,,,,,,,,,,,,,,,,,,,,,,,,,,,,,,,,,,,,,,,,,,,,,,,,,,,,,,,,,,,,,,,,,,,,,,,,,,,,,,,,,,,,,,,,,,,,,,,,,,,,,,,,,,,,,,,,,,,,,,,,,,,,,,,,,,,,,
23,US1TXVC0052,2018-07,28.690228,-97.155816,34.1,"VICTORIA 14.0 SW, TX US",,,,,,,,,,,,,,,,,60.0,"1,a,,N",,,,,,,,,,,,,,,,,,,,,,,,,,,,,,,,,,,,,,,,,,,,,,,,,,,,,,,,,,,,,,,,,,,,,,,,,,,,,,,,,,,,,,,,,,,,,,,,,,,,,,,,,,,,,,,,,,,,,,,,,,,,,,,,,,,,,,,,,,,,,,,,,,,,,,,,,,,,,,,,,,,,,,,,,,,,,,,,
24,US1TXVC0055,2020-05,28.832185,-96.949439,29.6,"VICTORIA 2.1 ENE, TX US",8.0,"1,N",5.0,"1,N",2.0,"1,N",,,,,20200513.0,",1,N",,,44.2,"1,,N,13,",121.5,"1,,,N",,,,,,,,,,,,,,,,,,,,,,,,,,,,,,,,,,,,,,,,,,,,,,,,,,,,,,,,,,,,,,,,,,,,,,,,,,,,,,,,,,,,,,,,,,,,,,,,,,,,,,,,,,,,,,,,,,,,,,,,,,,,,,,,,,,,,,,,,,,,,,,,,,,,,,,,,,,,,,,,,,,,,,,,,,,,,,,,
25,US1TXVC0056,2020-05,28.84478,-96.99127,32.0,"VICTORIA 1.5 NNW, TX US",6.0,"5,N",6.0,"5,N",3.0,"5,N",,,,,20200525.0,",5,N",,,45.7,"5,,N,25,",134.6,"5,,,N",,,,,,,,,,,,,,,,,,,,,,,,,,,,,,,,,,,,,,,,,,,,,,,,,,,,,,,,,,,,,,,,,,,,,,,,,,,,,,,,,,,,,,,,,,,,,,,,,,,,,,,,,,,,,,,,,,,,,,,,,,,,,,,,,,,,,,,,,,,,,,,,,,,,,,,,,,,,,,,,,,,,,,,,,,,,,,,,
26,US1TXVC0057,2020-05,28.730543,-97.131323,27.4,"VICTORIA 11.1 SW, TX US",8.0,"2,N",8.0,"2,N",1.0,"2,N",,,,,20200525.0,",2,N",,,36.6,"2,,N,25,",110.0,"2,,,N",,,,,,,,,,,,,,,,,,,,,,,,,,,,,,,,,,,,,,,,,,,,,,,,,,,,,,,,,,,,,,,,,,,,,,,,,,,,,,,,,,,,,,,,,,,,,,,,,,,,,,,,,,,,,,,,,,,,,,,,,,,,,,,,,,,,,,,,,,,,,,,,,,,,,,,,,,,,,,,,,,,,,,,,,,,,,,,,
27,US1TXVC0061,2021-06,28.8583115,-97.0085355,29.6,"VICTORIA 3.6 N, TX US",13.0,",N",8.0,",N",4.0,",N",,,,,20210606.0,",,N",,,41.4,",,N,06,",175.7,",,,N",,,,,,,,,,,,,,,,,,,,,,,,,,,,,,,,,,,,,,,,,,,,,,,,,,,,,,,,,,,,,,,,,,,,,,,,,,,,,,,,,,,,,,,,,,,,,,,,,,,,,,,,,,,,,,,,,,,,,,,,,,,,,,,,,,,,,,,,,,,,,,,,,,,,,,,,,,,,,,,,,,,,,,,,,,,,,,,,
28,US1TXVC0062,2022-01,28.8120523,-97.0753463,36.9,"VICTORIA 5.7 W, TX US",5.0,",N",3.0,",N",0.0,",N",,,,,20220125.0,",,N",,,18.0,",,N,25,",27.7,",,,N",,,,,,,,,,,,,,,,,,,,,,,,,,,,,,,,,,,,,,,,,,,,,,,,,,,,,,,,,,,,,,,,,,,,,,,,,,,,,,,,,,,,,,,,,,,,,,,,,,,,,,,,,,,,,,,,,,,,,,,,,,,,,,,,,,,,,,,,,,,,,,,,,,,,,,,,,,,,,,,,,,,,,,,,,,,,,,,,
29,US1TXVC0066,2022-06,28.921247,-97.030103,43.9,"VICTORIA 7.3 NNW, TX US",3.0,"4,N",2.0,"4,N",1.0,"4,N",,,,,20220628.0,",4,N",,,50.8,"4,,N,28,",54.1,"4,,,N",,,,,,,,,,,,,,,,,,,,,,,,,,,,,,,,,,,,,,,,,,,,,,,,,,,,,,,,,,,,,,,,,,,,,,,,,,,,,,,,,,,,,,,,,,,,,,,,,,,,,,,,,,,,,,,,,,,,,,,,,,,,,,,,,,,,,,,,,,,,,,,,,,,,,,,,,,,,,,,,,,,,,,,,,,,,,,,,
30,US1TXVC0067,2023-02,28.869448,-96.848081,22.3,"INEZ 3.3 W, TX US",7.0,",N",4.0,",N",0.0,",N",,,,,20230209.0,",,N",,,20.6,",,N,09,",34.2,",,,N",,,,,,,,,,,,,,,,,,,,,,,,,,,,,,,,,,,,,,,,,,,,,,,,,,,,,,,,,,,,,,,,,,,,,,,,,,,,,,,,,,,,,,,,,,,,,,,,,,,,,,,,,,,,,,,,,,,,,,,,,,,,,,,,,,,,,,,,,,,,,,,,,,,,,,,,,,,,,,,,,,,,,,,,,,,,,,,,
31,US1TXVC0068,2023-06,28.8289447,-96.9473204,31.4,"VICTORIA 2.2 E, TX US",5.0,",N",2.0,",N",0.0,",N",0.0,"5,N",20230630.0,"+,5,N",20230606.0,",,N",0.0,"5,,N,30,+",6.1,",,N,06,",12.5,",,,N",0.0,"5,,,N",,,,,,,,,,,,,,,,,,,,,,,,,,,,,,,,,,,,,,,,,,,,,,,,,,,,,,,,,,,,,,,,,,,,,,,,,,,,,,,,,,,,,,,,,,,,,,,,,,,,,,,,,,,,,,,,,,,,,,,,,,,,,,,,,,,,,,,,,,,,,,,,,,,,,,,,,,,,,,,,,,,,,,,,,,,,,,
32,US1TXVV0001,2007-10,29.383983,-100.90964,324.9,"DEL RIO 1.0 WNW, TX US",2.0,"1,N",2.0,"1,N",0.0,"1,N",0.0,"1,N",20071031.0,"+,1,N",20071010.0,",1,N",0.0,"1,,N,31,+",10.7,"1,,N,10,",16.8,"1,,,N",0.0,"1,,,N",,,,,,,,,,,,,,,,,,,,,,,,,,,,,,,,,,,,,,,,,,,,,,,,,,,,,,,,,,,,,,,,,,,,,,,,,,,,,,,,,,,,,,,,,,,,,,,,,,,,,,,,,,,,,,,,,,,,,,,,,,,,,,,,,,,,,,,,,,,,,,,,,,,,,,,,,,,,,,,,,,,,,,,,,,,,,,
33,US1TXVV0003,2007-12,29.442051,-100.953602,347.5,"DEL RIO 5.7 NW, TX US",4.0,",N",2.0,",N",0.0,",N",0.0,",N",20071231.0,"+,,N",20071201.0,",,N",0.0,",,N,31,+",6.4,",,N,01,",12.3,",,,N",0.0,",,,N",,,,,,,,,,,,,,,,,,,,,,,,,,,,,,,,,,,,,,,,,,,,,,,,,,,,,,,,,,,,,,,,,,,,,,,,,,,,,,,,,,,,,,,,,,,,,,,,,,,,,,,,,,,,,,,,,,,,,,,,,,,,,,,,,,,,,,,,,,,,,,,,,,,,,,,,,,,,,,,,,,,,,,,,,,,,,,
34,US1TXVV0004,2008-06,29.321583,-100.44575,344.1,"CLOSED, TX US",1.0,"2,N",1.0,"2,N",1.0,"2,N",0.0,"2,N",20080630.0,"+,2,N",20080630.0,",2,N",0.0,"2,,N,30,+",50.8,"2,,N,30,",50.8,",a,,N",0.0,"2,,,N",,,,,,,,,,,,,,,,,,,,,,,,,,,,,,,,,,,,,,,,,,,,,,,,,,,,,,,,,,,,,,,,,,,,,,,,,,,,,,,,,,,,,,,,,,,,,,,,,,,,,,,,,,,,,,,,,,,,,,,,,,,,,,,,,,,,,,,,,,,,,,,,,,,,,,,,,,,,,,,,,,,,,,,,,,,,,,
35,US1TXVV0008,2009-04,29.759493,-101.208433,137.5,"COMSTOCK 5.4 NNW, TX US",5.0,"4,N",2.0,"4,N",0.0,"4,N",,,,,20090412.0,",4,N",,,10.4,"4,,N,12,",18.7,"4,,,N",,,,,,,,,,,,,,,,,,,,,,,,,,,,,,,,,,,,,,,,,,,,,,,,,,,,,,,,,,,,,,,,,,,,,,,,,,,,,,,,,,,,,,,,,,,,,,,,,,,,,,,,,,,,,,,,,,,,,,,,,,,,,,,,,,,,,,,,,,,,,,,,,,,,,,,,,,,,,,,,,,,,,,,,,,,,,,,,
36,US1TXVV0009,2010-05,30.06429,-101.408333,605.9,"COMSTOCK 29.7 NW, TX US",6.0,",N",4.0,",N",0.0,",N",,,,,20100516.0,",,N",,,10.4,",,N,16,",32.7,",,,N",,,,,,,,,,,,,,,,,,,,,,,,,,,,,,,,,,,,,,,,,,,,,,,,,,,,,,,,,,,,,,,,,,,,,,,,,,,,,,,,,,,,,,,,,,,,,,,,,,,,,,,,,,,,,,,,,,,,,,,,,,,,,,,,,,,,,,,,,,,,,,,,,,,,,,,,,,,,,,,,,,,,,,,,,,,,,,,,
37,US1TXVV0010,2010-03,30.283672,-100.958896,594.4,"OZONA 32.7 SSE, TX US",5.0,"5,N",3.0,"5,N",0.0,"5,N",,,,,20100320.0,",5,N",,,9.7,"5,,N,20,",23.4,"5,,,N",,,,,,,,,,,,,,,,,,,,,,,,,,,,,,,,,,,,,,,,,,,,,,,,,,,,,,,,,,,,,,,,,,,,,,,,,,,,,,,,,,,,,,,,,,,,,,,,,,,,,,,,,,,,,,,,,,,,,,,,,,,,,,,,,,,,,,,,,,,,,,,,,,,,,,,,,,,,,,,,,,,,,,,,,,,,,,,,
38,US1TXVV0011,2013-02,30.15238,-101.709,611.4,"LANGTRY 25.3 NNW, TX US",0.0,"4,N",0.0,"4,N",0.0,"4,N",0.0,"4,N",20130228.0,"+,4,N",20130228.0,"+,4,N",0.0,"4,,N,28,+",0.0,"4,,N,28,+",0.0,"4,,,N",0.0,"4,,,N",,,,,,,,,,,,,,,,,,,,,,,,,,,,,,,,,,,,,,,,,,,,,,,,,,,,,,,,,,,,,,,,,,,,,,,,,,,,,,,,,,,,,,,,,,,,,,,,,,,,,,,,,,,,,,,,,,,,,,,,,,,,,,,,,,,,,,,,,,,,,,,,,,,,,,,,,,,,,,,,,,,,,,,,,,,,,,
39,US1TXVV0014,2010-06,29.83067,-101.7334,494.7,"LANGTRY 10.6 W, TX US",,,,,,,,,,,,,,,,,34.3,"5,a,,N",,,,,,,,,,,,,,,,,,,,,,,,,,,,,,,,,,,,,,,,,,,,,,,,,,,,,,,,,,,,,,,,,,,,,,,,,,,,,,,,,,,,,,,,,,,,,,,,,,,,,,,,,,,,,,,,,,,,,,,,,,,,,,,,,,,,,,,,,,,,,,,,,,,,,,,,,,,,,,,,,,,,,,,,,,,,,,,,
40,US1TXVV0015,2010-04,29.700233,-101.3133,417.0,"COMSTOCK 8.5 WNW SEMINOLE CANYON, TX US",7.0,"5,N",2.0,"5,N",1.0,"5,N",,,,,20100415.0,",5,N",,,66.0,"5,,N,15,",72.4,"5,,,N",,,,,,,,,,,,,,,,,,,,,,,,,,,,,,,,,,,,,,,,,,,,,,,,,,,,,,,,,,,,,,,,,,,,,,,,,,,,,,,,,,,,,,,,,,,,,,,,,,,,,,,,,,,,,,,,,,,,,,,,,,,,,,,,,,,,,,,,,,,,,,,,,,,,,,,,,,,,,,,,,,,,,,,,,,,,,,,,
41,US1TXVV0016,2010-04,29.48166667,-100.9413333,361.5,"DEL RIO 7.8 NNW, TX US",10.0,"3,N",5.0,"3,N",1.0,"3,N",,,,,20100415.0,",3,N",,,71.9,"3,,N,15,",121.7,"3,,,N",,,,,,,,,,,,,,,,,,,,,,,,,,,,,,,,,,,,,,,,,,,,,,,,,,,,,,,,,,,,,,,,,,,,,,,,,,,,,,,,,,,,,,,,,,,,,,,,,,,,,,,,,,,,,,,,,,,,,,,,,,,,,,,,,,,,,,,,,,,,,,,,,,,,,,,,,,,,,,,,,,,,,,,,,,,,,,,,
42,US1TXVV0017,2010-05,29.5098,-100.9085333,342.3,"DEL RIO 9.3 N, TX US",8.0,"4,N",6.0,"4,N",2.0,"4,N",,,,,20100525.0,",4,N",,,244.1,"4,,N,25,",302.0,"4,,,N",,,,,,,,,,,,,,,,,,,,,,,,,,,,,,,,,,,,,,,,,,,,,,,,,,,,,,,,,,,,,,,,,,,,,,,,,,,,,,,,,,,,,,,,,,,,,,,,,,,,,,,,,,,,,,,,,,,,,,,,,,,,,,,,,,,,,,,,,,,,,,,,,,,,,,,,,,,,,,,,,,,,,,,,,,,,,,,,
43,US1TXVV0021,2013-02,30.080514,-101.738355,609.3,"LANGTRY 21.7 NW, TX US",0.0,"3,N",0.0,"3,N",0.0,"3,N",0.0,"3,N",20130228.0,"+,3,N",20130228.0,"+,3,N",0.0,"3,,N,28,+",0.0,"3,,N,28,+",0.0,"3,,,N",0.0,"3,,,N",,,,,,,,,,,,,,,,,,,,,,,,,,,,,,,,,,,,,,,,,,,,,,,,,,,,,,,,,,,,,,,,,,,,,,,,,,,,,,,,,,,,,,,,,,,,,,,,,,,,,,,,,,,,,,,,,,,,,,,,,,,,,,,,,,,,,,,,,,,,,,,,,,,,,,,,,,,,,,,,,,,,,,,,,,,,,,
44,US1TXVV0022,2013-01,29.968693,-101.150038,464.5,"DEL RIO 43.7 NNW, TX US",1.0,"4,N",1.0,"4,N",1.0,"4,N",0.0,"5,N",20130131.0,"+,5,N",20130110.0,",4,N",0.0,"5,,N,31,+",25.4,"4,,N,10,",25.4,"1,a,,N",0.0,"5,,,N",,,,,,,,,,,,,,,,,,,,,,,,,,,,,,,,,,,,,,,,,,,,,,,,,,,,,,,,,,,,,,,,,,,,,,,,,,,,,,,,,,,,,,,,,,,,,,,,,,,,,,,,,,,,,,,,,,,,,,,,,,,,,,,,,,,,,,,,,,,,,,,,,,,,,,,,,,,,,,,,,,,,,,,,,,,,,,
45,US1TXVV0023,2013-04,29.35484,-100.92927,288.0,"DEL RIO 2.5 SW, TX US",5.0,",N",1.0,",N",0.0,",N",0.0,"5,N",20130430.0,"+,5,N",20130403.0,",,N",0.0,"5,,N,30,+",8.9,",,N,03,",14.8,",,,N",0.0,"5,,,N",,,,,,,,,,,,,,,,,,,,,,,,,,,,,,,,,,,,,,,,,,,,,,,,,,,,,,,,,,,,,,,,,,,,,,,,,,,,,,,,,,,,,,,,,,,,,,,,,,,,,,,,,,,,,,,,,,,,,,,,,,,,,,,,,,,,,,,,,,,,,,,,,,,,,,,,,,,,,,,,,,,,,,,,,,,,,,
46,US1TXVV0034,2019-05,29.39133,-100.92295,310.3,"DEL RIO 1.9 WNW, TX US",9.0,"3,N",3.0,"3,N",1.0,"3,N",,,,,20190519.0,",3,N",,,26.4,"3,,N,19,",42.1,"3,,,N",,,,,,,,,,,,,,,,,,,,,,,,,,,,,,,,,,,,,,,,,,,,,,,,,,,,,,,,,,,,,,,,,,,,,,,,,,,,,,,,,,,,,,,,,,,,,,,,,,,,,,,,,,,,,,,,,,,,,,,,,,,,,,,,,,,,,,,,,,,,,,,,,,,,,,,,,,,,,,,,,,,,,,,,,,,,,,,,
47,US1TXVV0037,2020-03,29.68617,-101.17183,484.3,"COMSTOCK 0.2 NE, TX US",7.0,",N",4.0,",N",1.0,",N",,,,,20200316.0,",,N",,,46.2,",,N,16,",88.2,",,,N",,,,,,,,,,,,,,,,,,,,,,,,,,,,,,,,,,,,,,,,,,,,,,,,,,,,,,,,,,,,,,,,,,,,,,,,,,,,,,,,,,,,,,,,,,,,,,,,,,,,,,,,,,,,,,,,,,,,,,,,,,,,,,,,,,,,,,,,,,,,,,,,,,,,,,,,,,,,,,,,,,,,,,,,,,,,,,,,
48,US1TXVZ0002,2009-07,32.48625,-95.89277,193.9,"CANTON 4.6 SSW, TX US",12.0,",N",5.0,",N",1.0,",N",,,,,20090717.0,",,N",,,43.2,",,N,17,",85.4,",,,N",,,,,,,,,,,,,,,,,,,,,,,,,,,,,,,,,,,,,,,,,,,,,,,,,,,,,,,,,,,,,,,,,,,,,,,,,,,,,,,,,,,,,,,,,,,,,,,,,,,,,,,,,,,,,,,,,,,,,,,,,,,,,,,,,,,,,,,,,,,,,,,,,,,,,,,,,,,,,,,,,,,,,,,,,,,,,,,,
49,US1TXVZ0006,2012-02,32.445505,-96.038811,135.6,"MABANK 6.7 NE, TX US",5.0,"5,N",4.0,"5,N",1.0,"5,N",,,,,20120218.0,",5,N",,,38.1,"5,,N,18,",58.8,"5,,,N",,,,,,,,,,,,,,,,,,,,,,,,,,,,,,,,,,,,,,,,,,,,,,,,,,,,,,,,,,,,,,,,,,,,,,,,,,,,,,,,,,,,,,,,,,,,,,,,,,,,,,,,,,,,,,,,,,,,,,,,,,,,,,,,,,,,,,,,,,,,,,,,,,,,,,,,,,,,,,,,,,,,,,,,,,,,,,,,
50,US1TXVZ0009,2015-02,32.55819,-95.632149,147.2,"VAN 2.4 N, TX US",10.0,",N",6.0,",N",1.0,",N",,,,,20150216.0,",,N",,,33.5,",,N,16,",112.0,",,,N",,,,,,,,,,,,,,,,,,,,,,,,,,,,,,,,,,,,,,,,,,,,,,,,,,,,,,,,,,,,,,,,,,,,,,,,,,,,,,,,,,,,,,,,,,,,,,,,,,,,,,,,,,,,,,,,,,,,,,,,,,,,,,,,,,,,,,,,,,,,,,,,,,,,,,,,,,,,,,,,,,,,,,,,,,,,,,,,
51,US1TXVZ0010,2015-01,32.451134249568,-95.7319457083941,159.4,"BEN WHEELER 1.7 WNW, TX US",7.0,"4,N",6.0,"4,N",3.0,"4,N",,,,,20150103.0,",4,N",,,42.7,"4,,N,03,",139.5,"4,,,N",,,,,,,,,,,,,,,,,,,,,,,,,,,,,,,,,,,,,,,,,,,,,,,,,,,,,,,,,,,,,,,,,,,,,,,,,,,,,,,,,,,,,,,,,,,,,,,,,,,,,,,,,,,,,,,,,,,,,,,,,,,,,,,,,,,,,,,,,,,,,,,,,,,,,,,,,,,,,,,,,,,,,,,,,,,,,,,,
52,US1TXVZ0011,2015-01,32.431226,-95.638541,157.6,"BEN WHEELER 3.9 ESE, TX US",7.0,"5,N",5.0,"5,N",3.0,"5,N",,,,,20150103.0,",5,N",,,41.4,"5,,N,03,",138.4,"1,a,,N",,,,,,,,,,,,,,,,,,,,,,,,,,,,,,,,,,,,,,,,,,,,,,,,,,,,,,,,,,,,,,,,,,,,,,,,,,,,,,,,,,,,,,,,,,,,,,,,,,,,,,,,,,,,,,,,,,,,,,,,,,,,,,,,,,,,,,,,,,,,,,,,,,,,,,,,,,,,,,,,,,,,,,,,,,,,,,,,
53,US1TXVZ0013,2015-02,32.703916,-95.879486,135.0,"EDGEWOOD 0.6 NNE, TX US",9.0,"2,N",6.0,"2,N",0.0,"2,N",,,,,20150223.0,",2,N",,,23.9,"2,,N,23,",81.8,"2,,,N",,,,,,,,,,,,,,,,,,,,,,,,,,,,,,,,,,,,,,,,,,,,,,,,,,,,,,,,,,,,,,,,,,,,,,,,,,,,,,,,,,,,,,,,,,,,,,,,,,,,,,,,,,,,,,,,,,,,,,,,,,,,,,,,,,,,,,,,,,,,,,,,,,,,,,,,,,,,,,,,,,,,,,,,,,,,,,,,
54,US1TXVZ0019,2015-01,32.52082,-95.65964,152.4,"VAN 1.3 W, TX US",7.0,",N",6.0,",N",2.0,",N",,,,,20150103.0,",,N",,,53.6,",,N,03,",146.6,",,,N",,,,,,,,,,,,,,,,,,,,,,,,,,,,,,,,,,,,,,,,,,,,,,,,,,,,,,,,,,,,,,,,,,,,,,,,,,,,,,,,,,,,,,,,,,,,,,,,,,,,,,,,,,,,,,,,,,,,,,,,,,,,,,,,,,,,,,,,,,,,,,,,,,,,,,,,,,,,,,,,,,,,,,,,,,,,,,,,
55,US1TXVZ0021,2015-01,32.548405,-95.968627,153.3,"CANTON 6.1 W, TX US",8.0,"1,N",7.0,"1,N",2.0,"1,N",,,,,20150103.0,",1,N",,,37.1,"1,,N,03,",127.0,"1,,,N",,,,,,,,,,,,,,,,,,,,,,,,,,,,,,,,,,,,,,,,,,,,,,,,,,,,,,,,,,,,,,,,,,,,,,,,,,,,,,,,,,,,,,,,,,,,,,,,,,,,,,,,,,,,,,,,,,,,,,,,,,,,,,,,,,,,,,,,,,,,,,,,,,,,,,,,,,,,,,,,,,,,,,,,,,,,,,,,
56,US1TXVZ0028,2015-01,32.765396,-96.04304,153.9,"WILLS POINT 4.4 NNW, TX US",7.0,"1,N",7.0,"1,N",1.0,"1,N",,,,,20150103.0,",1,N",,,29.5,"1,,N,03,",110.1,"1,,,N",,,,,,,,,,,,,,,,,,,,,,,,,,,,,,,,,,,,,,,,,,,,,,,,,,,,,,,,,,,,,,,,,,,,,,,,,,,,,,,,,,,,,,,,,,,,,,,,,,,,,,,,,,,,,,,,,,,,,,,,,,,,,,,,,,,,,,,,,,,,,,,,,,,,,,,,,,,,,,,,,,,,,,,,,,,,,,,,
57,US1TXVZ0030,2015-02,32.367602,-95.686202,143.9,"MURCHISON 7.7 NNE, TX US",9.0,"3,N",5.0,"3,N",0.0,"3,N",,,,,20150216.0,",3,N",,,24.4,"3,,N,16,",85.1,"3,,,N",,,,,,,,,,,,,,,,,,,,,,,,,,,,,,,,,,,,,,,,,,,,,,,,,,,,,,,,,,,,,,,,,,,,,,,,,,,,,,,,,,,,,,,,,,,,,,,,,,,,,,,,,,,,,,,,,,,,,,,,,,,,,,,,,,,,,,,,,,,,,,,,,,,,,,,,,,,,,,,,,,,,,,,,,,,,,,,,
58,US1TXVZ0033,2017-04,32.374877,-95.916771,177.7,"EUSTACE 7.3 NE, TX US",12.0,",N",5.0,",N",2.0,",N",,,,,20170430.0,",,N",,,63.8,",,N,30,",130.9,",,,N",,,,,,,,,,,,,,,,,,,,,,,,,,,,,,,,,,,,,,,,,,,,,,,,,,,,,,,,,,,,,,,,,,,,,,,,,,,,,,,,,,,,,,,,,,,,,,,,,,,,,,,,,,,,,,,,,,,,,,,,,,,,,,,,,,,,,,,,,,,,,,,,,,,,,,,,,,,,,,,,,,,,,,,,,,,,,,,,
59,US1TXVZ0034,2017-04,32.480195,-95.702584,160.9,"BEN WHEELER 2.4 N, TX US",9.0,"2,N",7.0,"2,N",2.0,"2,N",,,,,20170430.0,",2,N",,,49.3,"2,,N,30,",124.5,",a,,N",,,,,,,,,,,,,,,,,,,,,,,,,,,,,,,,,,,,,,,,,,,,,,,,,,,,,,,,,,,,,,,,,,,,,,,,,,,,,,,,,,,,,,,,,,,,,,,,,,,,,,,,,,,,,,,,,,,,,,,,,,,,,,,,,,,,,,,,,,,,,,,,,,,,,,,,,,,,,,,,,,,,,,,,,,,,,,,,
60,US1TXVZ0036,2020-10,32.68883,-95.708917,143.0,"GRAND SALINE 0.8 N, TX US",5.0,",N",5.0,",N",0.0,",N",,,,,20201024.0,",,N",,,12.4,",,N,24,",50.0,",,,N",,,,,,,,,,,,,,,,,,,,,,,,,,,,,,,,,,,,,,,,,,,,,,,,,,,,,,,,,,,,,,,,,,,,,,,,,,,,,,,,,,,,,,,,,,,,,,,,,,,,,,,,,,,,,,,,,,,,,,,,,,,,,,,,,,,,,,,,,,,,,,,,,,,,,,,,,,,,,,,,,,,,,,,,,,,,,,,,
61,US1TXVZ0038,2021-08,32.385072,-95.597713,167.9,"EDOM 1.1 NE, TX US",7.0,"1,N",5.0,"1,N",2.0,"1,N",,,,,20210818.0,",1,N",,,96.8,"1,,N,18,",150.4,"1,,,N",,,,,,,,,,,,,,,,,,,,,,,,,,,,,,,,,,,,,,,,,,,,,,,,,,,,,,,,,,,,,,,,,,,,,,,,,,,,,,,,,,,,,,,,,,,,,,,,,,,,,,,,,,,,,,,,,,,,,,,,,,,,,,,,,,,,,,,,,,,,,,,,,,,,,,,,,,,,,,,,,,,,,,,,,,,,,,,,
62,US1TXWA0001,2007-07,30.081667,-96.623806,134.1,"BURTON 6.9 SSW, TX US",15.0,",N",12.0,",N",0.0,",N",0.0,",N",20070731.0,"+,,N",20070722.0,",,N",0.0,",,N,31,+",21.8,",,N,22,",157.6,",,,N",0.0,",,,N",,,,,,,,,,,,,,,,,,,,,,,,,,,,,,,,,,,,,,,,,,,,,,,,,,,,,,,,,,,,,,,,,,,,,,,,,,,,,,,,,,,,,,,,,,,,,,,,,,,,,,,,,,,,,,,,,,,,,,,,,,,,,,,,,,,,,,,,,,,,,,,,,,,,,,,,,,,,,,,,,,,,,,,,,,,,,,
63,US1TXWA0003,2007-10,30.22988,-96.13557,75.0,"HEMPSTEAD 10.0 NNW, TX US",3.0,"4,N",3.0,"4,N",1.0,"4,N",0.0,"4,N",20071031.0,"+,4,N",20071016.0,",4,N",0.0,"4,,N,31,+",37.8,"4,,N,16,",51.7,"2,a,,N",0.0,"4,,,N",,,,,,,,,,,,,,,,,,,,,,,,,,,,,,,,,,,,,,,,,,,,,,,,,,,,,,,,,,,,,,,,,,,,,,,,,,,,,,,,,,,,,,,,,,,,,,,,,,,,,,,,,,,,,,,,,,,,,,,,,,,,,,,,,,,,,,,,,,,,,,,,,,,,,,,,,,,,,,,,,,,,,,,,,,,,,,
64,US1TXWA0004,2007-11,30.309268,-96.375206,106.7,"INDEPENDENCE 1.8 WSW, TX US",,,,,,,,,,,,,,,,,103.6,"5,a,,N",,,,,,,,,,,,,,,,,,,,,,,,,,,,,,,,,,,,,,,,,,,,,,,,,,,,,,,,,,,,,,,,,,,,,,,,,,,,,,,,,,,,,,,,,,,,,,,,,,,,,,,,,,,,,,,,,,,,,,,,,,,,,,,,,,,,,,,,,,,,,,,,,,,,,,,,,,,,,,,,,,,,,,,,,,,,,,,,
65,US1TXWA0005,2008-01,30.0895482,-96.486514,114.0,"BRENHAM 7.2 SW, TX US",12.0,"2,N",6.0,"2,N",0.0,"2,N",0.0,"2,N",20080131.0,"+,2,N",20080119.0,",2,N",0.0,"2,,N,31,+",21.1,"2,,N,19,",59.7,"2,,,N",0.0,"2,,,N",,,,,,,,,,,,,,,,,,,,,,,,,,,,,,,,,,,,,,,,,,,,,,,,,,,,,,,,,,,,,,,,,,,,,,,,,,,,,,,,,,,,,,,,,,,,,,,,,,,,,,,,,,,,,,,,,,,,,,,,,,,,,,,,,,,,,,,,,,,,,,,,,,,,,,,,,,,,,,,,,,,,,,,,,,,,,,
66,US1TXWA0006,2007-12,30.1572,-96.2626,75.0,"BRENHAM 8.0 E, TX US",12.0,",N",4.0,",N",1.0,",N",0.0,",N",20071231.0,"+,,N",20071215.0,",,N",0.0,",,N,31,+",32.0,",,N,15,",66.7,",,,N",0.0,",,,N",,,,,,,,,,,,,,,,,,,,,,,,,,,,,,,,,,,,,,,,,,,,,,,,,,,,,,,,,,,,,,,,,,,,,,,,,,,,,,,,,,,,,,,,,,,,,,,,,,,,,,,,,,,,,,,,,,,,,,,,,,,,,,,,,,,,,,,,,,,,,,,,,,,,,,,,,,,,,,,,,,,,,,,,,,,,,,
67,US1TXWA0007,2008-03,30.3118,-96.1864,89.9,"WASHINGTON 2.0 WSW, TX US",7.0,"5,N",4.0,"5,N",1.0,"5,N",0.0,"5,N",20080331.0,"+,5,N",20080319.0,",5,N",0.0,"5,,N,31,+",29.2,"5,,N,19,",86.8,"3,a,,N",0.0,"5,,,N",,,,,,,,,,,,,,,,,,,,,,,,,,,,,,,,,,,,,,,,,,,,,,,,,,,,,,,,,,,,,,,,,,,,,,,,,,,,,,,,,,,,,,,,,,,,,,,,,,,,,,,,,,,,,,,,,,,,,,,,,,,,,,,,,,,,,,,,,,,,,,,,,,,,,,,,,,,,,,,,,,,,,,,,,,,,,,
68,US1TXWA0008,2008-10,30.245277,-96.553178,116.7,"BURTON 5.3 NNE, TX US",4.0,"1,N",3.0,"1,N",1.0,"1,N",0.0,"1,N",20081031.0,"+,1,N",20081016.0,",1,N",0.0,"1,,N,31,+",27.2,"1,,N,16,",46.5,"1,,,N",0.0,"1,,,N",,,,,,,,,,,,,,,,,,,,,,,,,,,,,,,,,,,,,,,,,,,,,,,,,,,,,,,,,,,,,,,,,,,,,,,,,,,,,,,,,,,,,,,,,,,,,,,,,,,,,,,,,,,,,,,,,,,,,,,,,,,,,,,,,,,,,,,,,,,,,,,,,,,,,,,,,,,,,,,,,,,,,,,,,,,,,,
69,US1TXWA0009,2009-11,30.15644,-96.26298,71.9,"CHAPPELL HILL 1.0 NW, TX US",5.0,"2,N",4.0,"2,N",0.0,"2,N",,,,,20091116.0,",2,N",,,19.1,"2,,N,16,",47.6,"2,,,N",,,,,,,,,,,,,,,,,,,,,,,,,,,,,,,,,,,,,,,,,,,,,,,,,,,,,,,,,,,,,,,,,,,,,,,,,,,,,,,,,,,,,,,,,,,,,,,,,,,,,,,,,,,,,,,,,,,,,,,,,,,,,,,,,,,,,,,,,,,,,,,,,,,,,,,,,,,,,,,,,,,,,,,,,,,,,,,,
70,US1TXWA0010,2010-10,30.168968,-96.253409,75.9,"CHAPPELL HILL 1.8 N, TX US",1.0,"3,N",0.0,"3,N",0.0,"3,N",0.0,"4,N",20101031.0,"+,4,N",20101023.0,",3,N",0.0,"4,,N,31,+",0.3,"3,,N,23,",0.3,"3,,,N",0.0,"4,,,N",,,,,,,,,,,,,,,,,,,,,,,,,,,,,,,,,,,,,,,,,,,,,,,,,,,,,,,,,,,,,,,,,,,,,,,,,,,,,,,,,,,,,,,,,,,,,,,,,,,,,,,,,,,,,,,,,,,,,,,,,,,,,,,,,,,,,,,,,,,,,,,,,,,,,,,,,,,,,,,,,,,,,,,,,,,,,,
71,US1TXWA0012,2011-11,30.28213889,-96.17095833,82.9,"WASHINGTON 3.1 SSW, TX US",6.0,"2,N",4.0,"2,N",2.0,"2,N",,,,,20111116.0,",2,N",,,51.8,"2,,N,16,",129.0,",a,,N",,,,,,,,,,,,,,,,,,,,,,,,,,,,,,,,,,,,,,,,,,,,,,,,,,,,,,,,,,,,,,,,,,,,,,,,,,,,,,,,,,,,,,,,,,,,,,,,,,,,,,,,,,,,,,,,,,,,,,,,,,,,,,,,,,,,,,,,,,,,,,,,,,,,,,,,,,,,,,,,,,,,,,,,,,,,,,,,
72,US1TXWA0014,2013-09,30.221422,-96.222499,70.7,"WASHINGTON 8.6 SSW, TX US",3.0,",N",3.0,",N",2.0,",N",0.0,"3,N",20130930.0,"+,3,N",20130929.0,",,N",0.0,"3,,N,30,+",145.8,",,N,29,",259.4,",,,N",0.0,"3,,,N",,,,,,,,,,,,,,,,,,,,,,,,,,,,,,,,,,,,,,,,,,,,,,,,,,,,,,,,,,,,,,,,,,,,,,,,,,,,,,,,,,,,,,,,,,,,,,,,,,,,,,,,,,,,,,,,,,,,,,,,,,,,,,,,,,,,,,,,,,,,,,,,,,,,,,,,,,,,,,,,,,,,,,,,,,,,,,
73,US1TXWA0015,2013-10,30.15944444,-96.73944444,134.7,"CARMINE 3.1 WNW, TX US",12.0,"4,N",8.0,"4,N",3.0,"4,N",,,,,20131031.0,",4,N",,,42.2,"4,,N,31,",165.8,"4,,,N",,,,,,,,,,,,,,,,,,,,,,,,,,,,,,,,,,,,,,,,,,,,,,,,,,,,,,,,,,,,,,,,,,,,,,,,,,,,,,,,,,,,,,,,,,,,,,,,,,,,,,,,,,,,,,,,,,,,,,,,,,,,,,,,,,,,,,,,,,,,,,,,,,,,,,,,,,,,,,,,,,,,,,,,,,,,,,,,
74,US1TXWA0016,2013-12,30.14652,-96.36745,86.9,"BRENHAM 2.0 ESE, TX US",8.0,"2,N",2.0,"2,N",0.0,"2,N",,,,,20131221.0,",2,N",,,5.1,"2,,N,21,",17.3,"2,,,N",,,,,,,,,,,,,,,,,,,,,,,,,,,,,,,,,,,,,,,,,,,,,,,,,,,,,,,,,,,,,,,,,,,,,,,,,,,,,,,,,,,,,,,,,,,,,,,,,,,,,,,,,,,,,,,,,,,,,,,,,,,,,,,,,,,,,,,,,,,,,,,,,,,,,,,,,,,,,,,,,,,,,,,,,,,,,,,,
75,US1TXWA0017,2014-03,30.30139,-96.421313,88.4,"BRENHAM 9.9 N, TX US",7.0,"5,N",3.0,"5,N",0.0,"5,N",,,,,20140309.0,",5,N",,,20.8,"5,,N,09,",32.8,"5,,,N",,,,,,,,,,,,,,,,,,,,,,,,,,,,,,,,,,,,,,,,,,,,,,,,,,,,,,,,,,,,,,,,,,,,,,,,,,,,,,,,,,,,,,,,,,,,,,,,,,,,,,,,,,,,,,,,,,,,,,,,,,,,,,,,,,,,,,,,,,,,,,,,,,,,,,,,,,,,,,,,,,,,,,,,,,,,,,,,
76,US1TXWA0021,2016-02,30.0963,-96.5126,110.0,"BRENHAM 8.2 WSW, TX US",2.0,"3,N",2.0,"3,N",2.0,"3,N",,,,,20160222.0,",3,N",,,43.2,"3,,N,22,",80.0,"1,a,,N",,,,,,,,,,,,,,,,,,,,,,,,,,,,,,,,,,,,,,,,,,,,,,,,,,,,,,,,,,,,,,,,,,,,,,,,,,,,,,,,,,,,,,,,,,,,,,,,,,,,,,,,,,,,,,,,,,,,,,,,,,,,,,,,,,,,,,,,,,,,,,,,,,,,,,,,,,,,,,,,,,,,,,,,,,,,,,,,
77,US1TXWA0022,2016-05,30.212706,-96.534766,117.7,"BURTON 4.4 ENE, TX US",13.0,"3,N",7.0,"3,N",5.0,"3,N",,,,,20160527.0,",3,N",,,319.0,"3,,N,27,",512.3,"1,a,,N",,,,,,,,,,,,,,,,,,,,,,,,,,,,,,,,,,,,,,,,,,,,,,,,,,,,,,,,,,,,,,,,,,,,,,,,,,,,,,,,,,,,,,,,,,,,,,,,,,,,,,,,,,,,,,,,,,,,,,,,,,,,,,,,,,,,,,,,,,,,,,,,,,,,,,,,,,,,,,,,,,,,,,,,,,,,,,,,
78,US1TXWA0024,2016-05,30.158889,-96.384869,104.5,"BRENHAM 0.7 E, TX US",9.0,"5,N",5.0,"5,N",3.0,"5,N",,,,,20160515.0,",5,N",,,73.2,"5,,N,15,",201.7,"2,a,,N",,,,,,,,,,,,,,,,,,,,,,,,,,,,,,,,,,,,,,,,,,,,,,,,,,,,,,,,,,,,,,,,,,,,,,,,,,,,,,,,,,,,,,,,,,,,,,,,,,,,,,,,,,,,,,,,,,,,,,,,,,,,,,,,,,,,,,,,,,,,,,,,,,,,,,,,,,,,,,,,,,,,,,,,,,,,,,,,
79,US1TXWA0025,2018-03,30.17235,-96.51491,98.8,"BRENHAM 7.1 W, TX US",5.0,",N",2.0,",N",2.0,",N",0.0,"5,N",20180331.0,"+,5,N",20180329.0,",,N",0.0,"5,,N,31,+",76.2,",,N,29,",148.2,",,,N",0.0,"5,,,N",,,,,,,,,,,,,,,,,,,,,,,,,,,,,,,,,,,,,,,,,,,,,,,,,,,,,,,,,,,,,,,,,,,,,,,,,,,,,,,,,,,,,,,,,,,,,,,,,,,,,,,,,,,,,,,,,,,,,,,,,,,,,,,,,,,,,,,,,,,,,,,,,,,,,,,,,,,,,,,,,,,,,,,,,,,,,,
80,US1TXWA0026,2017-05,30.198854,-96.534312,114.6,"BURTON 4.0 ENE, TX US",,,,,,,,,,,,,,,,,21.4,"1,a,,N",,,,,,,,,,,,,,,,,,,,,,,,,,,,,,,,,,,,,,,,,,,,,,,,,,,,,,,,,,,,,,,,,,,,,,,,,,,,,,,,,,,,,,,,,,,,,,,,,,,,,,,,,,,,,,,,,,,,,,,,,,,,,,,,,,,,,,,,,,,,,,,,,,,,,,,,,,,,,,,,,,,,,,,,,,,,,,,,
81,US1TXWA0027,2017-03,30.2454,-96.5051,143.0,"BRENHAM 8.7 NW, TX US",,,,,,,,,,,,,,,,,67.8,"1,a,,N",,,,,,,,,,,,,,,,,,,,,,,,,,,,,,,,,,,,,,,,,,,,,,,,,,,,,,,,,,,,,,,,,,,,,,,,,,,,,,,,,,,,,,,,,,,,,,,,,,,,,,,,,,,,,,,,,,,,,,,,,,,,,,,,,,,,,,,,,,,,,,,,,,,,,,,,,,,,,,,,,,,,,,,,,,,,,,,,
82,US1TXWA0028,2018-01,30.149728,-96.378305,90.2,"BRENHAM 1.3 ESE, TX US",8.0,",N",3.0,",N",0.0,",N",,,,,20180128.0,",,N",,,14.5,",,N,28,",28.2,",,,N",,,,,,,,,,,,,,,,,,,,,,,,,,,,,,,,,,,,,,,,,,,,,,,,,,,,,,,,,,,,,,,,,,,,,,,,,,,,,,,,,,,,,,,,,,,,,,,,,,,,,,,,,,,,,,,,,,,,,,,,,,,,,,,,,,,,,,,,,,,,,,,,,,,,,,,,,,,,,,,,,,,,,,,,,,,,,,,,
83,US1TXWA0029,2018-04,30.17672,-96.44881,121.9,"BRENHAM 3.3 WNW, TX US",5.0,",N",3.0,",N",1.0,",N",0.0,"5,N",20180430.0,"+,5,N",20180422.0,",,N",0.0,"5,,N,30,+",54.1,",,N,22,",72.7,",,,N",0.0,"5,,,N",,,,,,,,,,,,,,,,,,,,,,,,,,,,,,,,,,,,,,,,,,,,,,,,,,,,,,,,,,,,,,,,,,,,,,,,,,,,,,,,,,,,,,,,,,,,,,,,,,,,,,,,,,,,,,,,,,,,,,,,,,,,,,,,,,,,,,,,,,,,,,,,,,,,,,,,,,,,,,,,,,,,,,,,,,,,,,
84,US1TXWA0033,2020-05,30.1933,-96.4198,94.5,"BRENHAM 2.7 NNW, TX US",6.0,",N",6.0,",N",1.0,",N",,,,,20200528.0,",,N",,,25.9,",,N,28,",89.4,",,,N",,,,,,,,,,,,,,,,,,,,,,,,,,,,,,,,,,,,,,,,,,,,,,,,,,,,,,,,,,,,,,,,,,,,,,,,,,,,,,,,,,,,,,,,,,,,,,,,,,,,,,,,,,,,,,,,,,,,,,,,,,,,,,,,,,,,,,,,,,,,,,,,,,,,,,,,,,,,,,,,,,,,,,,,,,,,,,,,
85,US1TXWA0035,2021-11,30.222396,-96.552575,136.6,"BURTON 4.0 NE, TX US",5.0,"1,N",3.0,"1,N",1.0,"1,N",,,,,20211104.0,",1,N",,,45.5,"1,,N,04,",72.9,"1,,,N",,,,,,,,,,,,,,,,,,,,,,,,,,,,,,,,,,,,,,,,,,,,,,,,,,,,,,,,,,,,,,,,,,,,,,,,,,,,,,,,,,,,,,,,,,,,,,,,,,,,,,,,,,,,,,,,,,,,,,,,,,,,,,,,,,,,,,,,,,,,,,,,,,,,,,,,,,,,,,,,,,,,,,,,,,,,,,,,
86,US1TXWA0036,2022-02,30.1548693,-96.3033156,84.1,"BRENHAM 5.6 E, TX US",10.0,"1,N",3.0,"1,N",0.0,"1,N",,,,,20220203.0,",1,N",,,23.4,"1,,N,03,",39.8,"1,,,N",,,,,,,,,,,,,,,,,,,,,,,,,,,,,,,,,,,,,,,,,,,,,,,,,,,,,,,,,,,,,,,,,,,,,,,,,,,,,,,,,,,,,,,,,,,,,,,,,,,,,,,,,,,,,,,,,,,,,,,,,,,,,,,,,,,,,,,,,,,,,,,,,,,,,,,,,,,,,,,,,,,,,,,,,,,,,,,,
87,US1TXWA0037,2022-03,30.17666,-96.41218,90.5,"BRENHAM 1.5 NW, TX US",9.0,"3,N",4.0,"3,N",1.0,"3,N",,,,,20220322.0,",3,N",,,43.2,"3,,N,22,",87.2,"1,a,,N",,,,,,,,,,,,,,,,,,,,,,,,,,,,,,,,,,,,,,,,,,,,,,,,,,,,,,,,,,,,,,,,,,,,,,,,,,,,,,,,,,,,,,,,,,,,,,,,,,,,,,,,,,,,,,,,,,,,,,,,,,,,,,,,,,,,,,,,,,,,,,,,,,,,,,,,,,,,,,,,,,,,,,,,,,,,,,,,
88,US1TXWA0038,2022-05,30.21011,-96.42075,94.2,"BRENHAM 3.8 NNW, TX US",3.0,"1,N",3.0,"1,N",0.0,"1,N",0.0,"5,N",20220531.0,"+,5,N",20220506.0,",1,N",0.0,"5,,N,31,+",21.3,"1,,N,06,",42.7,"1,,,N",0.0,"5,,,N",,,,,,,,,,,,,,,,,,,,,,,,,,,,,,,,,,,,,,,,,,,,,,,,,,,,,,,,,,,,,,,,,,,,,,,,,,,,,,,,,,,,,,,,,,,,,,,,,,,,,,,,,,,,,,,,,,,,,,,,,,,,,,,,,,,,,,,,,,,,,,,,,,,,,,,,,,,,,,,,,,,,,,,,,,,,,,
89,US1TXWA0040,2023-03,30.1726,-96.69651,130.1,"CARMINE 1.7 NNW, TX US",6.0,",N",2.0,",N",0.0,",N",,,,,20230317.0,",,N",,,22.9,",,N,17,",30.8,",,,N",,,,,,,,,,,,,,,,,,,,,,,,,,,,,,,,,,,,,,,,,,,,,,,,,,,,,,,,,,,,,,,,,,,,,,,,,,,,,,,,,,,,,,,,,,,,,,,,,,,,,,,,,,,,,,,,,,,,,,,,,,,,,,,,,,,,,,,,,,,,,,,,,,,,,,,,,,,,,,,,,,,,,,,,,,,,,,,,
90,US1TXWA0042,2023-03,30.07949,-96.22738,75.3,"CHAPPELL HILL 4.7 SSE, TX US",6.0,"3,N",4.0,"3,N",0.0,"3,N",,,,,20230317.0,",3,N",,,22.6,"3,,N,17,",38.9,"3,,,N",,,,,,,,,,,,,,,,,,,,,,,,,,,,,,,,,,,,,,,,,,,,,,,,,,,,,,,,,,,,,,,,,,,,,,,,,,,,,,,,,,,,,,,,,,,,,,,,,,,,,,,,,,,,,,,,,,,,,,,,,,,,,,,,,,,,,,,,,,,,,,,,,,,,,,,,,,,,,,,,,,,,,,,,,,,,,,,,
91,US1TXWA0043,2023-03,30.152301,-96.371542,87.5,"BRENHAM 1.6 ESE, TX US",11.0,"4,N",3.0,"4,N",0.0,"4,N",,,,,20230317.0,",4,N",,,21.1,"4,,N,17,",40.9,"4,,,N",,,,,,,,,,,,,,,,,,,,,,,,,,,,,,,,,,,,,,,,,,,,,,,,,,,,,,,,,,,,,,,,,,,,,,,,,,,,,,,,,,,,,,,,,,,,,,,,,,,,,,,,,,,,,,,,,,,,,,,,,,,,,,,,,,,,,,,,,,,,,,,,,,,,,,,,,,,,,,,,,,,,,,,,,,,,,,,,
92,US1TXWA0044,2023-05,30.166575,-96.40623,103.0,"BRENHAM 0.7 NW, TX US",11.0,"4,N",8.0,"4,N",2.0,"4,N",,,,,20230510.0,",4,N",,,33.8,"4,,N,10,",148.2,",a,,N",,,,,,,,,,,,,,,,,,,,,,,,,,,,,,,,,,,,,,,,,,,,,,,,,,,,,,,,,,,,,,,,,,,,,,,,,,,,,,,,,,,,,,,,,,,,,,,,,,,,,,,,,,,,,,,,,,,,,,,,,,,,,,,,,,,,,,,,,,,,,,,,,,,,,,,,,,,,,,,,,,,,,,,,,,,,,,,,
93,US1TXWB0002,2010-10,27.509148,-99.477082,141.1,"LAREDO 1.8 SSE, TX US",0.0,",N",0.0,",N",0.0,",N",0.0,",N",20101031.0,"+,,N",20101031.0,"+,,N",0.0,",,N,31,+",0.0,",,N,31,+",0.0,",,,N",0.0,",,,N",,,,,,,,,,,,,,,,,,,,,,,,,,,,,,,,,,,,,,,,,,,,,,,,,,,,,,,,,,,,,,,,,,,,,,,,,,,,,,,,,,,,,,,,,,,,,,,,,,,,,,,,,,,,,,,,,,,,,,,,,,,,,,,,,,,,,,,,,,,,,,,,,,,,,,,,,,,,,,,,,,,,,,,,,,,,,,
94,US1TXWB0003,2007-11,27.606,-99.464,171.9,"LAREDO 5.1 NNE, TX US",4.0,",N",1.0,",N",0.0,",N",0.0,",N",20071130.0,"+,,N",20071124.0,",,N",0.0,",,N,30,+",3.6,",,N,24,",6.4,",,,N",0.0,",,,N",,,,,,,,,,,,,,,,,,,,,,,,,,,,,,,,,,,,,,,,,,,,,,,,,,,,,,,,,,,,,,,,,,,,,,,,,,,,,,,,,,,,,,,,,,,,,,,,,,,,,,,,,,,,,,,,,,,,,,,,,,,,,,,,,,,,,,,,,,,,,,,,,,,,,,,,,,,,,,,,,,,,,,,,,,,,,,
95,US1TXWB0004,2008-05,27.9025,-99.6392,184.1,"LAS TIENDAS RANCH, TX US",4.0,"3,N",4.0,"3,N",2.0,"3,N",0.0,"3,N",20080531.0,"+,3,N",20080506.0,",3,N",0.0,"3,,N,31,+",47.8,"3,,N,06,",101.1,"3,,,N",0.0,"3,,,N",,,,,,,,,,,,,,,,,,,,,,,,,,,,,,,,,,,,,,,,,,,,,,,,,,,,,,,,,,,,,,,,,,,,,,,,,,,,,,,,,,,,,,,,,,,,,,,,,,,,,,,,,,,,,,,,,,,,,,,,,,,,,,,,,,,,,,,,,,,,,,,,,,,,,,,,,,,,,,,,,,,,,,,,,,,,,,
96,US1TXWB0005,2010-10,27.85667,-99.26497,143.0,"ENCINAL 13.9 SSE, TX US",0.0,",N",0.0,",N",0.0,",N",0.0,",N",20101031.0,"+,,N",20101031.0,"+,,N",0.0,",,N,31,+",0.0,",,N,31,+",0.0,",,,N",0.0,",,,N",,,,,,,,,,,,,,,,,,,,,,,,,,,,,,,,,,,,,,,,,,,,,,,,,,,,,,,,,,,,,,,,,,,,,,,,,,,,,,,,,,,,,,,,,,,,,,,,,,,,,,,,,,,,,,,,,,,,,,,,,,,,,,,,,,,,,,,,,,,,,,,,,,,,,,,,,,,,,,,,,,,,,,,,,,,,,,
97,US1TXWB0006,2008-02,27.49939,-99.4845,132.9,"LAREDO 2.4 S, TX US",2.0,",N",0.0,",N",0.0,",N",0.0,",N",20080229.0,"+,,N",20080220.0,",,N",0.0,",,N,29,+",0.8,",,N,20,",1.3,",,,N",0.0,",,,N",,,,,,,,,,,,,,,,,,,,,,,,,,,,,,,,,,,,,,,,,,,,,,,,,,,,,,,,,,,,,,,,,,,,,,,,,,,,,,,,,,,,,,,,,,,,,,,,,,,,,,,,,,,,,,,,,,,,,,,,,,,,,,,,,,,,,,,,,,,,,,,,,,,,,,,,,,,,,,,,,,,,,,,,,,,,,,
98,US1TXWB0007,2010-01,28.176458,-99.778819,199.3,"CATARINA 15.4 SW, TX US",5.0,",N",5.0,",N",1.0,",N",0.0,"5,N",20100131.0,"+,5,N",20100116.0,",,N",0.0,"5,,N,31,+",42.2,",,N,16,",70.3,",,,N",0.0,"5,,,N",,,,,,,,,,,,,,,,,,,,,,,,,,,,,,,,,,,,,,,,,,,,,,,,,,,,,,,,,,,,,,,,,,,,,,,,,,,,,,,,,,,,,,,,,,,,,,,,,,,,,,,,,,,,,,,,,,,,,,,,,,,,,,,,,,,,,,,,,,,,,,,,,,,,,,,,,,,,,,,,,,,,,,,,,,,,,,
99,US1TXWB0008,2010-01,27.3623,-99.4808,125.9,"EL CENIZO 2.5 NNE JUAREZ LINCOLN ELEM. SCHOOL, TX US",,,,,,,,,,,,,,,,,41.2,"5,a,,N",,,,,,,,,,,,,,,,,,,,,,,,,,,,,,,,,,,,,,,,,,,,,,,,,,,,,,,,,,,,,,,,,,,,,,,,,,,,,,,,,,,,,,,,,,,,,,,,,,,,,,,,,,,,,,,,,,,,,,,,,,,,,,,,,,,,,,,,,,,,,,,,,,,,,,,,,,,,,,,,,,,,,,,,,,,,,,,,
100,US1TXWB0009,2011-01,27.3159,-99.361,145.1,"EL CENIZO 8.8 E, TX US",5.0,",N",1.0,",N",1.0,",N",0.0,"5,N",20110131.0,"+,5,N",20110109.0,",,N",0.0,"5,,N,31,+",29.2,",,N,09,",34.6,",,,N",0.0,"5,,,N",,,,,,,,,,,,,,,,,,,,,,,,,,,,,,,,,,,,,,,,,,,,,,,,,,,,,,,,,,,,,,,,,,,,,,,,,,,,,,,,,,,,,,,,,,,,,,,,,,,,,,,,,,,,,,,,,,,,,,,,,,,,,,,,,,,,,,,,,,,,,,,,,,,,,,,,,,,,,,,,,,,,,,,,,,,,,,
101,US1TXWB0010,2008-02,27.5731,-99.48,157.9,"LAREDO 2.7 N UNITED MIDDLE SCHOOL, TX US",1.0,"2,N",0.0,"2,N",0.0,"2,N",0.0,"2,N",20080229.0,"+,2,N",20080220.0,",2,N",0.0,"2,,N,29,+",0.3,"2,,N,20,",0.3,"2,,,N",0.0,"2,,,N",,,,,,,,,,,,,,,,,,,,,,,,,,,,,,,,,,,,,,,,,,,,,,,,,,,,,,,,,,,,,,,,,,,,,,,,,,,,,,,,,,,,,,,,,,,,,,,,,,,,,,,,,,,,,,,,,,,,,,,,,,,,,,,,,,,,,,,,,,,,,,,,,,,,,,,,,,,,,,,,,,,,,,,,,,,,,,
102,US1TXWB0012,2008-06,27.560331,-99.483452,144.2,"LAREDO 1.8 N, TX US",1.0,"4,N",0.0,"4,N",0.0,"4,N",0.0,"4,N",20080630.0,"+,4,N",20080622.0,",4,N",0.0,"4,,N,30,+",0.3,"4,,N,22,",0.3,"4,,,N",0.0,"4,,,N",,,,,,,,,,,,,,,,,,,,,,,,,,,,,,,,,,,,,,,,,,,,,,,,,,,,,,,,,,,,,,,,,,,,,,,,,,,,,,,,,,,,,,,,,,,,,,,,,,,,,,,,,,,,,,,,,,,,,,,,,,,,,,,,,,,,,,,,,,,,,,,,,,,,,,,,,,,,,,,,,,,,,,,,,,,,,,
103,US1TXWB0013,2008-08,27.5818,-99.478,160.9,"LAREDO 3.3 N, TX US",9.0,"3,N",7.0,"3,N",4.0,"3,N",0.0,"3,N",20080831.0,"+,3,N",20080818.0,",3,N",0.0,"3,,N,31,+",42.2,"3,,N,18,",192.4,"3,,,N",0.0,"3,,,N",,,,,,,,,,,,,,,,,,,,,,,,,,,,,,,,,,,,,,,,,,,,,,,,,,,,,,,,,,,,,,,,,,,,,,,,,,,,,,,,,,,,,,,,,,,,,,,,,,,,,,,,,,,,,,,,,,,,,,,,,,,,,,,,,,,,,,,,,,,,,,,,,,,,,,,,,,,,,,,,,,,,,,,,,,,,,,
104,US1TXWB0014,2008-07,27.68305,-99.23717,173.1,"LAREDO 18.4 NE, TX US",8.0,"3,N",8.0,"3,N",2.0,"3,N",0.0,"3,N",20080731.0,"+,3,N",20080708.0,",3,N",0.0,"3,,N,31,+",33.8,"3,,N,08,",115.9,"3,,,N",0.0,"3,,,N",,,,,,,,,,,,,,,,,,,,,,,,,,,,,,,,,,,,,,,,,,,,,,,,,,,,,,,,,,,,,,,,,,,,,,,,,,,,,,,,,,,,,,,,,,,,,,,,,,,,,,,,,,,,,,,,,,,,,,,,,,,,,,,,,,,,,,,,,,,,,,,,,,,,,,,,,,,,,,,,,,,,,,,,,,,,,,
105,US1TXWB0017,2017-03,27.4591,-99.4792,139.9,"LAREDO 5.2 S, TX US",,,,,,,,,,,,,,,,,71.9,"1,a,,N",,,,,,,,,,,,,,,,,,,,,,,,,,,,,,,,,,,,,,,,,,,,,,,,,,,,,,,,,,,,,,,,,,,,,,,,,,,,,,,,,,,,,,,,,,,,,,,,,,,,,,,,,,,,,,,,,,,,,,,,,,,,,,,,,,,,,,,,,,,,,,,,,,,,,,,,,,,,,,,,,,,,,,,,,,,,,,,,
106,US1TXWB0018,2010-10,27.550971,-99.490118,135.3,"LAREDO 1.2 N, TX US",0.0,",N",0.0,",N",0.0,",N",0.0,",N",20101031.0,"+,,N",20101031.0,"+,,N",0.0,",,N,31,+",0.0,",,N,31,+",0.0,",,,N",0.0,",,,N",,,,,,,,,,,,,,,,,,,,,,,,,,,,,,,,,,,,,,,,,,,,,,,,,,,,,,,,,,,,,,,,,,,,,,,,,,,,,,,,,,,,,,,,,,,,,,,,,,,,,,,,,,,,,,,,,,,,,,,,,,,,,,,,,,,,,,,,,,,,,,,,,,,,,,,,,,,,,,,,,,,,,,,,,,,,,,
107,US1TXWB0021,2009-06,27.596023333,-99.4643,171.3,"LAREDO 4.5 NNE, TX US",,,,,,,,,,,,,,,,,9.6,"5,a,,N",,,,,,,,,,,,,,,,,,,,,,,,,,,,,,,,,,,,,,,,,,,,,,,,,,,,,,,,,,,,,,,,,,,,,,,,,,,,,,,,,,,,,,,,,,,,,,,,,,,,,,,,,,,,,,,,,,,,,,,,,,,,,,,,,,,,,,,,,,,,,,,,,,,,,,,,,,,,,,,,,,,,,,,,,,,,,,,,
108,US1TXWB0022,2009-04,27.6497,-99.1217,167.9,"LAREDO 23.7 ENE, TX US",3.0,"2,N",1.0,"2,N",0.0,"2,N",0.0,"5,N",20090430.0,"+,5,N",20090418.0,",2,N",0.0,"5,,N,30,+",2.5,"2,,N,18,",3.1,"2,,,N",0.0,"5,,,N",,,,,,,,,,,,,,,,,,,,,,,,,,,,,,,,,,,,,,,,,,,,,,,,,,,,,,,,,,,,,,,,,,,,,,,,,,,,,,,,,,,,,,,,,,,,,,,,,,,,,,,,,,,,,,,,,,,,,,,,,,,,,,,,,,,,,,,,,,,,,,,,,,,,,,,,,,,,,,,,,,,,,,,,,,,,,,
109,US1TXWB0023,2009-02,27.6765,-99.0423,159.1,"FREER 29.5 WSW, TX US",2.0,"3,N",0.0,"3,N",0.0,"3,N",0.0,"5,N",20090228.0,"+,5,N",20090217.0,",3,N",0.0,"5,,N,28,+",2.0,"3,,N,17,",2.3,"3,,,N",0.0,"5,,,N",,,,,,,,,,,,,,,,,,,,,,,,,,,,,,,,,,,,,,,,,,,,,,,,,,,,,,,,,,,,,,,,,,,,,,,,,,,,,,,,,,,,,,,,,,,,,,,,,,,,,,,,,,,,,,,,,,,,,,,,,,,,,,,,,,,,,,,,,,,,,,,,,,,,,,,,,,,,,,,,,,,,,,,,,,,,,,
110,US1TXWB0024,2009-03,27.5806,-99.4869,148.1,"LAREDO 3.2 N, TX US",3.0,"2,N",1.0,"2,N",0.0,"2,N",0.0,"5,N",20090331.0,"+,5,N",20090315.0,",2,N",0.0,"5,,N,31,+",5.1,"2,,N,15,",7.1,"2,,,N",0.0,"5,,,N",,,,,,,,,,,,,,,,,,,,,,,,,,,,,,,,,,,,,,,,,,,,,,,,,,,,,,,,,,,,,,,,,,,,,,,,,,,,,,,,,,,,,,,,,,,,,,,,,,,,,,,,,,,,,,,,,,,,,,,,,,,,,,,,,,,,,,,,,,,,,,,,,,,,,,,,,,,,,,,,,,,,,,,,,,,,,,
111,US1TXWB0025,2009-03,27.479322,-99.455055,150.9,"LAREDO 4.3 SSE, TX US",3.0,"3,N",1.0,"3,N",0.0,"3,N",,,,,20090315.0,",3,N",,,4.3,"3,,N,15,",6.1,"3,,,N",,,,,,,,,,,,,,,,,,,,,,,,,,,,,,,,,,,,,,,,,,,,,,,,,,,,,,,,,,,,,,,,,,,,,,,,,,,,,,,,,,,,,,,,,,,,,,,,,,,,,,,,,,,,,,,,,,,,,,,,,,,,,,,,,,,,,,,,,,,,,,,,,,,,,,,,,,,,,,,,,,,,,,,,,,,,,,,,
112,US1TXWB0026,2009-09,27.502113,-99.504773,125.0,"LAREDO 2.5 SSW, TX US",10.0,"4,N",5.0,"4,N",1.0,"4,N",,,,,20090930.0,",4,N",,,45.2,"4,,N,30,",103.6,"4,,,N",,,,,,,,,,,,,,,,,,,,,,,,,,,,,,,,,,,,,,,,,,,,,,,,,,,,,,,,,,,,,,,,,,,,,,,,,,,,,,,,,,,,,,,,,,,,,,,,,,,,,,,,,,,,,,,,,,,,,,,,,,,,,,,,,,,,,,,,,,,,,,,,,,,,,,,,,,,,,,,,,,,,,,,,,,,,,,,,
113,US1TXWB0027,2010-10,27.559,-99.47,145.1,"LAREDO 2.0 NNE, TX US",0.0,",N",0.0,",N",0.0,",N",0.0,",N",20101031.0,"+,,N",20101031.0,"+,,N",0.0,",,N,31,+",0.0,",,N,31,+",0.0,",,,N",0.0,",,,N",,,,,,,,,,,,,,,,,,,,,,,,,,,,,,,,,,,,,,,,,,,,,,,,,,,,,,,,,,,,,,,,,,,,,,,,,,,,,,,,,,,,,,,,,,,,,,,,,,,,,,,,,,,,,,,,,,,,,,,,,,,,,,,,,,,,,,,,,,,,,,,,,,,,,,,,,,,,,,,,,,,,,,,,,,,,,,
114,US1TXWB0028,2009-09,27.5519,-99.495,132.0,"LAREDO 1.3 NNW, TX US",,,,,,,,,,,,,,,,,75.8,",a,,N",,,,,,,,,,,,,,,,,,,,,,,,,,,,,,,,,,,,,,,,,,,,,,,,,,,,,,,,,,,,,,,,,,,,,,,,,,,,,,,,,,,,,,,,,,,,,,,,,,,,,,,,,,,,,,,,,,,,,,,,,,,,,,,,,,,,,,,,,,,,,,,,,,,,,,,,,,,,,,,,,,,,,,,,,,,,,,,,
115,US1TXWB0029,2010-01,27.5131,-99.4627,125.9,"LAREDO 2.1 SE, TX US",6.0,"3,N",3.0,"3,N",0.0,"3,N",,,,,20100115.0,",3,N",,,18.5,"3,,N,15,",29.2,"3,,,N",,,,,,,,,,,,,,,,,,,,,,,,,,,,,,,,,,,,,,,,,,,,,,,,,,,,,,,,,,,,,,,,,,,,,,,,,,,,,,,,,,,,,,,,,,,,,,,,,,,,,,,,,,,,,,,,,,,,,,,,,,,,,,,,,,,,,,,,,,,,,,,,,,,,,,,,,,,,,,,,,,,,,,,,,,,,,,,,
116,US1TXWB0031,2009-11,27.584,-99.456,157.9,"LAREDO 3.9 NNE, TX US",3.0,"3,N",1.0,"3,N",0.0,"3,N",,,,,20091121.0,",3,N",,,6.6,"3,,N,21,",7.6,"3,,,N",,,,,,,,,,,,,,,,,,,,,,,,,,,,,,,,,,,,,,,,,,,,,,,,,,,,,,,,,,,,,,,,,,,,,,,,,,,,,,,,,,,,,,,,,,,,,,,,,,,,,,,,,,,,,,,,,,,,,,,,,,,,,,,,,,,,,,,,,,,,,,,,,,,,,,,,,,,,,,,,,,,,,,,,,,,,,,,,
117,US1TXWB0036,2010-10,27.569377,-99.491642,141.7,"LAREDO 2.4 N, TX US",0.0,",N",0.0,",N",0.0,",N",0.0,",N",20101031.0,"+,,N",20101031.0,"+,,N",0.0,",,N,31,+",0.0,",,N,31,+",0.0,",,,N",0.0,",,,N",,,,,,,,,,,,,,,,,,,,,,,,,,,,,,,,,,,,,,,,,,,,,,,,,,,,,,,,,,,,,,,,,,,,,,,,,,,,,,,,,,,,,,,,,,,,,,,,,,,,,,,,,,,,,,,,,,,,,,,,,,,,,,,,,,,,,,,,,,,,,,,,,,,,,,,,,,,,,,,,,,,,,,,,,,,,,,
118,US1TXWB0037,2010-06,27.52066,-99.46111,132.3,"LAREDO 1.8 ESE, TX US",3.0,",N",3.0,",N",1.0,",N",0.0,"3,N",20100630.0,"+,3,N",20100603.0,",,N",0.0,"3,,N,30,+",35.6,",,N,03,",41.1,",,,N",0.0,"3,,,N",,,,,,,,,,,,,,,,,,,,,,,,,,,,,,,,,,,,,,,,,,,,,,,,,,,,,,,,,,,,,,,,,,,,,,,,,,,,,,,,,,,,,,,,,,,,,,,,,,,,,,,,,,,,,,,,,,,,,,,,,,,,,,,,,,,,,,,,,,,,,,,,,,,,,,,,,,,,,,,,,,,,,,,,,,,,,,
119,US1TXWB0038,2012-11,27.4523,-99.4669,164.0,"LAREDO 5.8 SSE CENTENO ELEMENTARY SCHOOL, TX US",,,,,,,0.0,"4,N",20121130.0,"+,4,N",,,0.0,"4,,N,30,+",,,,,0.0,"4,,,N",,,,,,,,,,,,,,,,,,,,,,,,,,,,,,,,,,,,,,,,,,,,,,,,,,,,,,,,,,,,,,,,,,,,,,,,,,,,,,,,,,,,,,,,,,,,,,,,,,,,,,,,,,,,,,,,,,,,,,,,,,,,,,,,,,,,,,,,,,,,,,,,,,,,,,,,,,,,,,,,,,,,,,,,,,,,,,
120,US1TXWB0039,2011-03,27.516397,-99.472857,143.9,"LAREDO 1.5 SE, TX US",0.0,",N",0.0,",N",0.0,",N",0.0,"1,N",20110331.0,"+,1,N",20110306.0,",,N",0.0,"1,,N,31,+",0.0,",T,N,06,",0.0,",T,,N",0.0,"1,,,N",,,,,,,,,,,,,,,,,,,,,,,,,,,,,,,,,,,,,,,,,,,,,,,,,,,,,,,,,,,,,,,,,,,,,,,,,,,,,,,,,,,,,,,,,,,,,,,,,,,,,,,,,,,,,,,,,,,,,,,,,,,,,,,,,,,,,,,,,,,,,,,,,,,,,,,,,,,,,,,,,,,,,,,,,,,,,,
121,US1TXWB0041,2015-07,27.645379,-99.541884,155.1,"LAREDO 8.4 NNW, TX US",0.0,"4,N",0.0,"4,N",0.0,"4,N",0.0,"4,N",20150731.0,"+,4,N",20150731.0,"+,4,N",0.0,"4,,N,31,+",0.0,"4,,N,31,+",0.0,"4,,,N",0.0,"4,,,N",,,,,,,,,,,,,,,,,,,,,,,,,,,,,,,,,,,,,,,,,,,,,,,,,,,,,,,,,,,,,,,,,,,,,,,,,,,,,,,,,,,,,,,,,,,,,,,,,,,,,,,,,,,,,,,,,,,,,,,,,,,,,,,,,,,,,,,,,,,,,,,,,,,,,,,,,,,,,,,,,,,,,,,,,,,,,,
122,US1TXWB0046,2015-06,27.5890407562256,-99.5261459350586,132.0,"LAREDO 4.5 NNW, TX US",2.0,"1,N",2.0,"1,N",1.0,"1,N",0.0,"3,N",20150630.0,"+,3,N",20150622.0,",1,N",0.0,"3,,N,30,+",45.7,"1,,N,22,",55.4,"1,,,N",0.0,"3,,,N",,,,,,,,,,,,,,,,,,,,,,,,,,,,,,,,,,,,,,,,,,,,,,,,,,,,,,,,,,,,,,,,,,,,,,,,,,,,,,,,,,,,,,,,,,,,,,,,,,,,,,,,,,,,,,,,,,,,,,,,,,,,,,,,,,,,,,,,,,,,,,,,,,,,,,,,,,,,,,,,,,,,,,,,,,,,,,
123,US1TXWB0047,2015-07,27.5697364807129,-99.4928359985352,139.9,"LAREDO 2.5 N, TX US",0.0,",N",0.0,",N",0.0,",N",0.0,",N",20150731.0,"+,,N",20150731.0,"+,,N",0.0,",,N,31,+",0.0,",,N,31,+",0.0,",,,N",0.0,",,,N",,,,,,,,,,,,,,,,,,,,,,,,,,,,,,,,,,,,,,,,,,,,,,,,,,,,,,,,,,,,,,,,,,,,,,,,,,,,,,,,,,,,,,,,,,,,,,,,,,,,,,,,,,,,,,,,,,,,,,,,,,,,,,,,,,,,,,,,,,,,,,,,,,,,,,,,,,,,,,,,,,,,,,,,,,,,,,
124,US1TXWB0048,2013-08,27.4866409301758,-99.458366394043,144.5,"LAREDO 3.7 SSE, TX US",5.0,"2,N",3.0,"2,N",0.0,"2,N",,,,,20130812.0,",2,N",,,10.2,"2,,N,12,",26.3,"2,,,N",,,,,,,,,,,,,,,,,,,,,,,,,,,,,,,,,,,,,,,,,,,,,,,,,,,,,,,,,,,,,,,,,,,,,,,,,,,,,,,,,,,,,,,,,,,,,,,,,,,,,,,,,,,,,,,,,,,,,,,,,,,,,,,,,,,,,,,,,,,,,,,,,,,,,,,,,,,,,,,,,,,,,,,,,,,,,,,,
125,US1TXWB0053,2016-06,27.6022815704346,-99.4673080444336,164.6,"LAREDO 4.8 NNE, TX US",4.0,",N",3.0,",N",1.0,",N",0.0,"5,N",20160630.0,"+,5,N",20160602.0,",,N",0.0,"5,,N,30,+",27.4,",,N,02,",44.4,",,,N",0.0,"5,,,N",,,,,,,,,,,,,,,,,,,,,,,,,,,,,,,,,,,,,,,,,,,,,,,,,,,,,,,,,,,,,,,,,,,,,,,,,,,,,,,,,,,,,,,,,,,,,,,,,,,,,,,,,,,,,,,,,,,,,,,,,,,,,,,,,,,,,,,,,,,,,,,,,,,,,,,,,,,,,,,,,,,,,,,,,,,,,,
126,US1TXWB0056,2019-08,27.5065,-99.49726,122.5,"LAREDO 2.0 SSW, TX US",0.0,",N",0.0,",N",0.0,",N",0.0,",N",20190831.0,"+,,N",20190831.0,"+,,N",0.0,",,N,31,+",0.0,",,N,31,+",0.0,",,,N",0.0,",,,N",,,,,,,,,,,,,,,,,,,,,,,,,,,,,,,,,,,,,,,,,,,,,,,,,,,,,,,,,,,,,,,,,,,,,,,,,,,,,,,,,,,,,,,,,,,,,,,,,,,,,,,,,,,,,,,,,,,,,,,,,,,,,,,,,,,,,,,,,,,,,,,,,,,,,,,,,,,,,,,,,,,,,,,,,,,,,,
127,US1TXWB0058,2020-09,27.275265,-98.886383,258.8,"HEBBRONVILLE 12.9 WSW WEID RANCH, TX US",6.0,"1,N",5.0,"1,N",0.0,"1,N",,,,,20200915.0,"+,1,N",,,11.9,"1,,N,15,+",49.2,"1,,,N",,,,,,,,,,,,,,,,,,,,,,,,,,,,,,,,,,,,,,,,,,,,,,,,,,,,,,,,,,,,,,,,,,,,,,,,,,,,,,,,,,,,,,,,,,,,,,,,,,,,,,,,,,,,,,,,,,,,,,,,,,,,,,,,,,,,,,,,,,,,,,,,,,,,,,,,,,,,,,,,,,,,,,,,,,,,,,,,
128,US1TXWB0060,2022-05,27.59281,-99.530868,135.3,"LAREDO 4.9 NW, TX US",4.0,",N",4.0,",N",2.0,",N",,,,,20220524.0,",,N",,,66.0,",,N,24,",130.3,",,,N",,,,,,,,,,,,,,,,,,,,,,,,,,,,,,,,,,,,,,,,,,,,,,,,,,,,,,,,,,,,,,,,,,,,,,,,,,,,,,,,,,,,,,,,,,,,,,,,,,,,,,,,,,,,,,,,,,,,,,,,,,,,,,,,,,,,,,,,,,,,,,,,,,,,,,,,,,,,,,,,,,,,,,,,,,,,,,,,
129,US1TXWC0001,2007-05,26.402261,-97.789051,14.0,"LYFORD 0.6 S, TX US",7.0,",N",5.0,",N",2.0,",N",0.0,",N",20070531.0,"+,,N",20070525.0,",,N",0.0,",,N,31,+",99.1,",,N,25,",191.3,",,,N",0.0,",,,N",,,,,,,,,,,,,,,,,,,,,,,,,,,,,,,,,,,,,,,,,,,,,,,,,,,,,,,,,,,,,,,,,,,,,,,,,,,,,,,,,,,,,,,,,,,,,,,,,,,,,,,,,,,,,,,,,,,,,,,,,,,,,,,,,,,,,,,,,,,,,,,,,,,,,,,,,,,,,,,,,,,,,,,,,,,,,,
130,US1TXWC0003,2011-04,26.358021,-97.687975,8.5,"LYFORD 7.3 ESE, TX US",0.0,"1,N",0.0,"1,N",0.0,"1,N",0.0,"1,N",20110430.0,"+,1,N",20110430.0,"+,1,N",0.0,"1,,N,30,+",0.0,"1,,N,30,+",0.0,"1,,,N",0.0,"1,,,N",,,,,,,,,,,,,,,,,,,,,,,,,,,,,,,,,,,,,,,,,,,,,,,,,,,,,,,,,,,,,,,,,,,,,,,,,,,,,,,,,,,,,,,,,,,,,,,,,,,,,,,,,,,,,,,,,,,,,,,,,,,,,,,,,,,,,,,,,,,,,,,,,,,,,,,,,,,,,,,,,,,,,,,,,,,,,,
131,US1TXWC0004,2011-07,26.48282224,-97.68740774,6.7,"RAYMONDVILLE 5.8 E, TX US",4.0,",N",4.0,",N",0.0,",N",0.0,"4,N",20110731.0,"+,4,N",20110701.0,",,N",0.0,"4,,N,31,+",24.4,",,N,01,",41.9,",,,N",0.0,"4,,,N",,,,,,,,,,,,,,,,,,,,,,,,,,,,,,,,,,,,,,,,,,,,,,,,,,,,,,,,,,,,,,,,,,,,,,,,,,,,,,,,,,,,,,,,,,,,,,,,,,,,,,,,,,,,,,,,,,,,,,,,,,,,,,,,,,,,,,,,,,,,,,,,,,,,,,,,,,,,,,,,,,,,,,,,,,,,,,
132,US1TXWC0005,2013-05,26.452045,-97.792376,10.1,"RAYMONDVILLE 2.0 SSW, TX US",6.0,"1,N",4.0,"1,N",2.0,"1,N",,,,,20130511.0,",1,N",,,63.5,"1,,N,11,",139.1,"1,,,N",,,,,,,,,,,,,,,,,,,,,,,,,,,,,,,,,,,,,,,,,,,,,,,,,,,,,,,,,,,,,,,,,,,,,,,,,,,,,,,,,,,,,,,,,,,,,,,,,,,,,,,,,,,,,,,,,,,,,,,,,,,,,,,,,,,,,,,,,,,,,,,,,,,,,,,,,,,,,,,,,,,,,,,,,,,,,,,,
133,US1TXWC0007,2018-04,26.55077,-97.43409,2.7,"PORT MANSFIELD 0.6 WSW, TX US",5.0,",N",0.0,",N",0.0,",N",0.0,"5,N",20180430.0,"+,5,N",20180410.0,",,N",0.0,"5,,N,30,+",1.8,",,N,10,",5.9,",,,N",0.0,"5,,,N",,,,,,,,,,,,,,,,,,,,,,,,,,,,,,,,,,,,,,,,,,,,,,,,,,,,,,,,,,,,,,,,,,,,,,,,,,,,,,,,,,,,,,,,,,,,,,,,,,,,,,,,,,,,,,,,,,,,,,,,,,,,,,,,,,,,,,,,,,,,,,,,,,,,,,,,,,,,,,,,,,,,,,,,,,,,,,
134,US1TXWD0002,2009-06,32.947033,-95.296006,150.9,"WINNSBORO 0.7 SSW, TX US",4.0,",N",2.0,",N",1.0,",N",0.0,"4,N",20090630.0,"+,4,N",20090630.0,",,N",0.0,"4,,N,30,+",52.1,",,N,30,",72.2,",,,N",0.0,"4,,,N",,,,,,,,,,,,,,,,,,,,,,,,,,,,,,,,,,,,,,,,,,,,,,,,,,,,,,,,,,,,,,,,,,,,,,,,,,,,,,,,,,,,,,,,,,,,,,,,,,,,,,,,,,,,,,,,,,,,,,,,,,,,,,,,,,,,,,,,,,,,,,,,,,,,,,,,,,,,,,,,,,,,,,,,,,,,,,
135,US1TXWD0004,2014-01,32.894885,-95.435434,133.5,"QUITMAN 6.9 N, TX US",3.0,",N",2.0,",N",1.0,",N",0.0,"3,N",20140131.0,"+,3,N",20140111.0,",,N",0.0,"3,,N,31,+",30.0,",,N,11,",36.8,",,,N",0.0,"3,,,N",,,,,,,,,,,,,,,,,,,,,,,,,,,,,,,,,,,,,,,,,,,,,,,,,,,,,,,,,,,,,,,,,,,,,,,,,,,,,,,,,,,,,,,,,,,,,,,,,,,,,,,,,,,,,,,,,,,,,,,,,,,,,,,,,,,,,,,,,,,,,,,,,,,,,,,,,,,,,,,,,,,,,,,,,,,,,,
136,US1TXWD0005,2014-01,32.662885,-95.46191667,129.8,"MINEOLA 1.6 E, TX US",3.0,"1,N",2.0,"1,N",0.0,"1,N",0.0,"4,N",20140131.0,"+,4,N",20140111.0,",1,N",0.0,"4,,N,31,+",25.1,"1,,N,11,",30.7,"1,,,N",0.0,"4,,,N",,,,,,,,,,,,,,,,,,,,,,,,,,,,,,,,,,,,,,,,,,,,,,,,,,,,,,,,,,,,,,,,,,,,,,,,,,,,,,,,,,,,,,,,,,,,,,,,,,,,,,,,,,,,,,,,,,,,,,,,,,,,,,,,,,,,,,,,,,,,,,,,,,,,,,,,,,,,,,,,,,,,,,,,,,,,,,
137,US1TXWD0008,2018-05,32.629034,-95.199085,137.2,"HAWKINS 2.6 N, TX US",3.0,",N",2.0,",N",0.0,",N",0.0,"5,N",20180531.0,"+,5,N",20180505.0,",,N",0.0,"5,,N,31,+",12.4,",,N,05,",20.6,",,,N",0.0,"5,,,N",,,,,,,,,,,,,,,,,,,,,,,,,,,,,,,,,,,,,,,,,,,,,,,,,,,,,,,,,,,,,,,,,,,,,,,,,,,,,,,,,,,,,,,,,,,,,,,,,,,,,,,,,,,,,,,,,,,,,,,,,,,,,,,,,,,,,,,,,,,,,,,,,,,,,,,,,,,,,,,,,,,,,,,,,,,,,,
138,US1TXWD0011,2021-05,32.698,-95.444,134.7,"MINEOLA 3.4 NE, TX US",19.0,",N",14.0,",N",3.0,",N",,,,,20210517.0,",,N",,,73.2,",,N,17,",276.3,",,,N",,,,,,,,,,,,,,,,,,,,,,,,,,,,,,,,,,,,,,,,,,,,,,,,,,,,,,,,,,,,,,,,,,,,,,,,,,,,,,,,,,,,,,,,,,,,,,,,,,,,,,,,,,,,,,,,,,,,,,,,,,,,,,,,,,,,,,,,,,,,,,,,,,,,,,,,,,,,,,,,,,,,,,,,,,,,,,,,
139,US1TXWG0002,2017-07,34.165514,-99.041965,358.4,"ELLIOTT 1.2 NNE, TX US",5.0,"5,N",4.0,"5,N",0.0,"5,N",,,,,20170704.0,",5,N",,,12.7,"5,,N,04,",32.3,"5,,,N",,,,,,,,,,,,,,,,,,,,,,,,,,,,,,,,,,,,,,,,,,,,,,,,,,,,,,,,,,,,,,,,,,,,,,,,,,,,,,,,,,,,,,,,,,,,,,,,,,,,,,,,,,,,,,,,,,,,,,,,,,,,,,,,,,,,,,,,,,,,,,,,,,,,,,,,,,,,,,,,,,,,,,,,,,,,,,,,
140,US1TXWG0004,2018-05,34.151486,-99.05505,363.0,"ELLIOTT 0.3 WNW, TX US",5.0,"4,N",4.0,"4,N",2.0,"4,N",,,,,20180503.0,",4,N",,,55.9,"4,,N,03,",115.6,"4,,,N",,,,,,,,,,,,,,,,,,,,,,,,,,,,,,,,,,,,,,,,,,,,,,,,,,,,,,,,,,,,,,,,,,,,,,,,,,,,,,,,,,,,,,,,,,,,,,,,,,,,,,,,,,,,,,,,,,,,,,,,,,,,,,,,,,,,,,,,,,,,,,,,,,,,,,,,,,,,,,,,,,,,,,,,,,,,,,,,
141,US1TXWH0001,2007-09,29.31613,-96.093434,29.9,"WHARTON 0.3 E, TX US",5.0,"5,N",4.0,"5,N",0.0,"5,N",0.0,"5,N",20070930.0,"+,5,N",20070910.0,",5,N",0.0,"5,,N,30,+",8.4,"5,,N,10,",21.3,"5,,,N",0.0,"5,,,N",,,,,,,,,,,,,,,,,,,,,,,,,,,,,,,,,,,,,,,,,,,,,,,,,,,,,,,,,,,,,,,,,,,,,,,,,,,,,,,,,,,,,,,,,,,,,,,,,,,,,,,,,,,,,,,,,,,,,,,,,,,,,,,,,,,,,,,,,,,,,,,,,,,,,,,,,,,,,,,,,,,,,,,,,,,,,,
142,US1TXWH0002,2008-02,29.12673,-96.26024,26.8,"EL CAMPO 4.9 SSE, TX US",6.0,",N",4.0,",N",1.0,",N",0.0,",N",20080229.0,"+,,N",20080212.0,",,N",0.0,",,N,29,+",52.3,",,N,12,",95.6,",,,N",0.0,",,,N",,,,,,,,,,,,,,,,,,,,,,,,,,,,,,,,,,,,,,,,,,,,,,,,,,,,,,,,,,,,,,,,,,,,,,,,,,,,,,,,,,,,,,,,,,,,,,,,,,,,,,,,,,,,,,,,,,,,,,,,,,,,,,,,,,,,,,,,,,,,,,,,,,,,,,,,,,,,,,,,,,,,,,,,,,,,,,
143,US1TXWH0003,2008-08,29.297685,-96.057739,30.2,"WHARTON 2.8 ESE, TX US",7.0,"4,N",7.0,"4,N",1.0,"4,N",0.0,"4,N",20080831.0,"+,4,N",20080820.0,",4,N",0.0,"4,,N,31,+",116.8,"4,,N,20,",199.7,"4,,,N",0.0,"4,,,N",,,,,,,,,,,,,,,,,,,,,,,,,,,,,,,,,,,,,,,,,,,,,,,,,,,,,,,,,,,,,,,,,,,,,,,,,,,,,,,,,,,,,,,,,,,,,,,,,,,,,,,,,,,,,,,,,,,,,,,,,,,,,,,,,,,,,,,,,,,,,,,,,,,,,,,,,,,,,,,,,,,,,,,,,,,,,,
144,US1TXWH0004,2008-08,29.206125,-96.289001,32.3,"EL CAMPO 1.0 NW, TX US",11.0,",N",8.0,",N",2.0,",N",0.0,",N",20080831.0,"+,,N",20080821.0,",,N",0.0,",,N,31,+",113.3,",,N,21,",193.9,",,,N",0.0,",,,N",,,,,,,,,,,,,,,,,,,,,,,,,,,,,,,,,,,,,,,,,,,,,,,,,,,,,,,,,,,,,,,,,,,,,,,,,,,,,,,,,,,,,,,,,,,,,,,,,,,,,,,,,,,,,,,,,,,,,,,,,,,,,,,,,,,,,,,,,,,,,,,,,,,,,,,,,,,,,,,,,,,,,,,,,,,,,,
145,US1TXWH0005,2009-04,29.184529,-96.315626,34.1,"EL CAMPO 2.5 WSW, TX US",4.0,"3,N",3.0,"3,N",1.0,"3,N",,,,,20090419.0,",3,N",,,112.0,"3,,N,19,",134.8,"3,,,N",,,,,,,,,,,,,,,,,,,,,,,,,,,,,,,,,,,,,,,,,,,,,,,,,,,,,,,,,,,,,,,,,,,,,,,,,,,,,,,,,,,,,,,,,,,,,,,,,,,,,,,,,,,,,,,,,,,,,,,,,,,,,,,,,,,,,,,,,,,,,,,,,,,,,,,,,,,,,,,,,,,,,,,,,,,,,,,,
146,US1TXWH0006,2010-02,29.508,-96.054,35.4,"EAST BERNARD 1.5 SSE, TX US",4.0,"4,N",4.0,"4,N",1.0,"4,N",,,,,20100212.0,",4,N",,,46.5,"4,,N,12,",78.2,"4,,,N",,,,,,,,,,,,,,,,,,,,,,,,,,,,,,,,,,,,,,,,,,,,,,,,,,,,,,,,,,,,,,,,,,,,,,,,,,,,,,,,,,,,,,,,,,,,,,,,,,,,,,,,,,,,,,,,,,,,,,,,,,,,,,,,,,,,,,,,,,,,,,,,,,,,,,,,,,,,,,,,,,,,,,,,,,,,,,,,
147,US1TXWH0009,2010-07,29.35413,-96.06968,27.7,"WHARTON 3.1 NE, TX US",15.0,",N",12.0,",N",5.0,",N",,,,,20100702.0,",,N",,,78.2,",,N,02,",345.3,",,,N",,,,,,,,,,,,,,,,,,,,,,,,,,,,,,,,,,,,,,,,,,,,,,,,,,,,,,,,,,,,,,,,,,,,,,,,,,,,,,,,,,,,,,,,,,,,,,,,,,,,,,,,,,,,,,,,,,,,,,,,,,,,,,,,,,,,,,,,,,,,,,,,,,,,,,,,,,,,,,,,,,,,,,,,,,,,,,,,
148,US1TXWH0010,2011-05,29.1981351,-96.2676922,32.3,"EL CAMPO 0.5 ENE, TX US",2.0,",N",2.0,",N",0.0,",N",0.0,"2,N",20110531.0,"+,2,N",20110513.0,",,N",0.0,"2,,N,31,+",23.9,",,N,13,",27.2,",,,N",0.0,"2,,,N",,,,,,,,,,,,,,,,,,,,,,,,,,,,,,,,,,,,,,,,,,,,,,,,,,,,,,,,,,,,,,,,,,,,,,,,,,,,,,,,,,,,,,,,,,,,,,,,,,,,,,,,,,,,,,,,,,,,,,,,,,,,,,,,,,,,,,,,,,,,,,,,,,,,,,,,,,,,,,,,,,,,,,,,,,,,,,
149,US1TXWH0011,2012-07,29.227813,-96.302022,34.4,"EL CAMPO 2.7 NW, TX US",12.0,",N",8.0,",N",3.0,",N",,,,,20120712.0,",,N",,,105.2,",,N,12,",243.8,",,,N",,,,,,,,,,,,,,,,,,,,,,,,,,,,,,,,,,,,,,,,,,,,,,,,,,,,,,,,,,,,,,,,,,,,,,,,,,,,,,,,,,,,,,,,,,,,,,,,,,,,,,,,,,,,,,,,,,,,,,,,,,,,,,,,,,,,,,,,,,,,,,,,,,,,,,,,,,,,,,,,,,,,,,,,,,,,,,,,
150,US1TXWH0016,2012-08,29.309902,-96.077375,30.5,"WHARTON 1.4 ESE, TX US",6.0,",N",4.0,",N",0.0,",N",,,,,20120806.0,",,N",,,11.9,",,N,06,",35.3,",,,N",,,,,,,,,,,,,,,,,,,,,,,,,,,,,,,,,,,,,,,,,,,,,,,,,,,,,,,,,,,,,,,,,,,,,,,,,,,,,,,,,,,,,,,,,,,,,,,,,,,,,,,,,,,,,,,,,,,,,,,,,,,,,,,,,,,,,,,,,,,,,,,,,,,,,,,,,,,,,,,,,,,,,,,,,,,,,,,,
151,US1TXWH0018,2016-04,29.417772,-96.05768,32.9,"EAST BERNARD 7.6 S, TX US",16.0,",N",7.0,",N",1.0,",N",,,,,20160419.0,",,N",,,65.0,",,N,19,",142.8,",,,N",,,,,,,,,,,,,,,,,,,,,,,,,,,,,,,,,,,,,,,,,,,,,,,,,,,,,,,,,,,,,,,,,,,,,,,,,,,,,,,,,,,,,,,,,,,,,,,,,,,,,,,,,,,,,,,,,,,,,,,,,,,,,,,,,,,,,,,,,,,,,,,,,,,,,,,,,,,,,,,,,,,,,,,,,,,,,,,,
152,US1TXWK0002,2009-07,30.769511,-95.58414,88.1,"HUNTSVILLE 4.5 NNW, TX US",8.0,"4,N",3.0,"4,N",0.0,"4,N",,,,,20090718.0,",4,N",,,11.2,"4,,N,18,",30.7,"4,,,N",,,,,,,,,,,,,,,,,,,,,,,,,,,,,,,,,,,,,,,,,,,,,,,,,,,,,,,,,,,,,,,,,,,,,,,,,,,,,,,,,,,,,,,,,,,,,,,,,,,,,,,,,,,,,,,,,,,,,,,,,,,,,,,,,,,,,,,,,,,,,,,,,,,,,,,,,,,,,,,,,,,,,,,,,,,,,,,,
153,US1TXWK0003,2009-06,30.625567,-95.71475,102.4,"HUNTSVILLE 11.5 WSW, TX US",3.0,",N",2.0,",N",0.0,",N",0.0,"3,N",20090630.0,"+,3,N",20090625.0,",,N",0.0,"3,,N,30,+",13.7,",,N,25,",25.2,",,,N",0.0,"3,,,N",,,,,,,,,,,,,,,,,,,,,,,,,,,,,,,,,,,,,,,,,,,,,,,,,,,,,,,,,,,,,,,,,,,,,,,,,,,,,,,,,,,,,,,,,,,,,,,,,,,,,,,,,,,,,,,,,,,,,,,,,,,,,,,,,,,,,,,,,,,,,,,,,,,,,,,,,,,,,,,,,,,,,,,,,,,,,,
154,US1TXWK0004,2009-07,30.8194,-95.3851,72.8,"HUNTSVILLE 12.3 NE, TX US",7.0,"2,N",4.0,"2,N",0.0,"2,N",,,,,20090718.0,",2,N",,,11.4,"2,,N,18,",33.0,"2,,,N",,,,,,,,,,,,,,,,,,,,,,,,,,,,,,,,,,,,,,,,,,,,,,,,,,,,,,,,,,,,,,,,,,,,,,,,,,,,,,,,,,,,,,,,,,,,,,,,,,,,,,,,,,,,,,,,,,,,,,,,,,,,,,,,,,,,,,,,,,,,,,,,,,,,,,,,,,,,,,,,,,,,,,,,,,,,,,,,
155,US1TXWK0005,2011-05,30.702,-95.596,118.6,"HUNTSVILLE 2.8 WSW, TX US",5.0,",N",3.0,",N",1.0,",N",0.0,"4,N",20110531.0,"+,4,N",20110521.0,",,N",0.0,"4,,N,31,+",27.4,",,N,21,",68.6,",,,N",0.0,"4,,,N",,,,,,,,,,,,,,,,,,,,,,,,,,,,,,,,,,,,,,,,,,,,,,,,,,,,,,,,,,,,,,,,,,,,,,,,,,,,,,,,,,,,,,,,,,,,,,,,,,,,,,,,,,,,,,,,,,,,,,,,,,,,,,,,,,,,,,,,,,,,,,,,,,,,,,,,,,,,,,,,,,,,,,,,,,,,,,
156,US1TXWK0007,2011-05,30.77926,-95.67437,86.3,"HUNTSVILLE 8.7 WNW, TX US",4.0,"4,N",4.0,"4,N",1.0,"4,N",,,,,20110521.0,",4,N",,,26.4,"4,,N,21,",64.0,"4,,,N",,,,,,,,,,,,,,,,,,,,,,,,,,,,,,,,,,,,,,,,,,,,,,,,,,,,,,,,,,,,,,,,,,,,,,,,,,,,,,,,,,,,,,,,,,,,,,,,,,,,,,,,,,,,,,,,,,,,,,,,,,,,,,,,,,,,,,,,,,,,,,,,,,,,,,,,,,,,,,,,,,,,,,,,,,,,,,,,
157,US1TXWK0009,2013-02,30.9424,-95.4404,50.9,"TRINITY 4.0 W, TX US",11.0,"2,N",3.0,"2,N",0.0,"2,N",,,,,20130211.0,",2,N",,,15.0,"2,,N,11,",35.5,"2,,,N",,,,,,,,,,,,,,,,,,,,,,,,,,,,,,,,,,,,,,,,,,,,,,,,,,,,,,,,,,,,,,,,,,,,,,,,,,,,,,,,,,,,,,,,,,,,,,,,,,,,,,,,,,,,,,,,,,,,,,,,,,,,,,,,,,,,,,,,,,,,,,,,,,,,,,,,,,,,,,,,,,,,,,,,,,,,,,,,
158,US1TXWK0010,2013-02,30.68758333,-95.73744444,96.0,"HUNTSVILLE 11.3 W, TX US",9.0,"4,N",4.0,"4,N",0.0,"4,N",,,,,20130211.0,",4,N",,,7.9,"4,,N,11,",27.0,"4,,,N",,,,,,,,,,,,,,,,,,,,,,,,,,,,,,,,,,,,,,,,,,,,,,,,,,,,,,,,,,,,,,,,,,,,,,,,,,,,,,,,,,,,,,,,,,,,,,,,,,,,,,,,,,,,,,,,,,,,,,,,,,,,,,,,,,,,,,,,,,,,,,,,,,,,,,,,,,,,,,,,,,,,,,,,,,,,,,,,
159,US1TXWK0012,2013-04,30.7586630433798,-95.5759605020285,112.2,"HUNTSVILLE 3.6 NNW, TX US",8.0,"1,N",4.0,"1,N",1.0,"1,N",,,,,20130403.0,",1,N",,,49.5,"1,,N,03,",93.2,"1,,,N",,,,,,,,,,,,,,,,,,,,,,,,,,,,,,,,,,,,,,,,,,,,,,,,,,,,,,,,,,,,,,,,,,,,,,,,,,,,,,,,,,,,,,,,,,,,,,,,,,,,,,,,,,,,,,,,,,,,,,,,,,,,,,,,,,,,,,,,,,,,,,,,,,,,,,,,,,,,,,,,,,,,,,,,,,,,,,,,
160,US1TXWK0013,2013-03,30.775136500597,-95.5834519118071,89.0,"HUNTSVILLE 4.8 NNW, TX US",5.0,",N",2.0,",N",1.0,",N",0.0,"4,N",20130331.0,"+,4,N",20130310.0,",,N",0.0,"4,,N,31,+",42.2,",,N,10,",55.7,",,,N",0.0,"4,,,N",,,,,,,,,,,,,,,,,,,,,,,,,,,,,,,,,,,,,,,,,,,,,,,,,,,,,,,,,,,,,,,,,,,,,,,,,,,,,,,,,,,,,,,,,,,,,,,,,,,,,,,,,,,,,,,,,,,,,,,,,,,,,,,,,,,,,,,,,,,,,,,,,,,,,,,,,,,,,,,,,,,,,,,,,,,,,,
161,US1TXWK0014,2013-05,30.851542,-95.48246,66.8,"HUNTSVILLE 10.4 NNE, TX US",9.0,"4,N",7.0,"4,N",3.0,"4,N",,,,,20130510.0,",4,N",,,149.4,"4,,N,10,",273.1,"4,,,N",,,,,,,,,,,,,,,,,,,,,,,,,,,,,,,,,,,,,,,,,,,,,,,,,,,,,,,,,,,,,,,,,,,,,,,,,,,,,,,,,,,,,,,,,,,,,,,,,,,,,,,,,,,,,,,,,,,,,,,,,,,,,,,,,,,,,,,,,,,,,,,,,,,,,,,,,,,,,,,,,,,,,,,,,,,,,,,,
162,US1TXWK0016,2013-08,30.68611111,-95.78194444,102.1,"HUNTSVILLE 13.9 W, TX US",6.0,",N",3.0,",N",0.0,",N",,,,,20130824.0,",,N",,,10.9,",,N,24,",22.3,",,,N",,,,,,,,,,,,,,,,,,,,,,,,,,,,,,,,,,,,,,,,,,,,,,,,,,,,,,,,,,,,,,,,,,,,,,,,,,,,,,,,,,,,,,,,,,,,,,,,,,,,,,,,,,,,,,,,,,,,,,,,,,,,,,,,,,,,,,,,,,,,,,,,,,,,,,,,,,,,,,,,,,,,,,,,,,,,,,,,
163,US1TXWK0018,2013-10,30.695361,-95.540406,142.3,"HUNTSVILLE 1.3 SSE, TX US",8.0,"5,N",6.0,"5,N",2.0,"5,N",,,,,20131031.0,",5,N",,,127.0,"5,,N,31,",215.1,"5,,,N",,,,,,,,,,,,,,,,,,,,,,,,,,,,,,,,,,,,,,,,,,,,,,,,,,,,,,,,,,,,,,,,,,,,,,,,,,,,,,,,,,,,,,,,,,,,,,,,,,,,,,,,,,,,,,,,,,,,,,,,,,,,,,,,,,,,,,,,,,,,,,,,,,,,,,,,,,,,,,,,,,,,,,,,,,,,,,,,
164,US1TXWK0019,2013-09,30.748447,-95.632092,103.9,"HUNTSVILLE 5.5 WNW, TX US",8.0,"3,N",5.0,"3,N",1.0,"3,N",,,,,20130921.0,",3,N",,,59.9,"3,,N,21,",124.1,"3,,,N",,,,,,,,,,,,,,,,,,,,,,,,,,,,,,,,,,,,,,,,,,,,,,,,,,,,,,,,,,,,,,,,,,,,,,,,,,,,,,,,,,,,,,,,,,,,,,,,,,,,,,,,,,,,,,,,,,,,,,,,,,,,,,,,,,,,,,,,,,,,,,,,,,,,,,,,,,,,,,,,,,,,,,,,,,,,,,,,
165,US1TXWK0021,2014-08,30.856037,-95.43094,70.4,"RIVERSIDE 2.0 WNW, TX US",8.0,"3,N",5.0,"3,N",0.0,"3,N",,,,,20140808.0,",3,N",,,16.0,"3,,N,08,",44.2,"1,a,,N",,,,,,,,,,,,,,,,,,,,,,,,,,,,,,,,,,,,,,,,,,,,,,,,,,,,,,,,,,,,,,,,,,,,,,,,,,,,,,,,,,,,,,,,,,,,,,,,,,,,,,,,,,,,,,,,,,,,,,,,,,,,,,,,,,,,,,,,,,,,,,,,,,,,,,,,,,,,,,,,,,,,,,,,,,,,,,,,
166,US1TXWK0025,2016-11,30.679,-95.555,128.9,"HUNTSVILLE 2.3 S, TX US",7.0,"1,N",4.0,"1,N",2.0,"1,N",,,,,20161107.0,",1,N",,,38.4,"1,,N,07,",76.4,"1,,,N",,,,,,,,,,,,,,,,,,,,,,,,,,,,,,,,,,,,,,,,,,,,,,,,,,,,,,,,,,,,,,,,,,,,,,,,,,,,,,,,,,,,,,,,,,,,,,,,,,,,,,,,,,,,,,,,,,,,,,,,,,,,,,,,,,,,,,,,,,,,,,,,,,,,,,,,,,,,,,,,,,,,,,,,,,,,,,,,
167,US1TXWK0026,2017-05,30.683056,-95.435278,121.9,"HUNTSVILLE 7.1 ESE, TX US",8.0,",N",4.0,",N",1.0,",N",,,,,20170523.0,",,N",,,95.3,",,N,23,",137.3,",,,N",,,,,,,,,,,,,,,,,,,,,,,,,,,,,,,,,,,,,,,,,,,,,,,,,,,,,,,,,,,,,,,,,,,,,,,,,,,,,,,,,,,,,,,,,,,,,,,,,,,,,,,,,,,,,,,,,,,,,,,,,,,,,,,,,,,,,,,,,,,,,,,,,,,,,,,,,,,,,,,,,,,,,,,,,,,,,,,,
168,US1TXWK0028,2020-09,30.8239,-95.48376,54.9,"HUNTSVILLE 8.7 NNE, TX US",9.0,"5,N",9.0,"5,N",1.0,"5,N",,,,,20200923.0,",5,N",,,36.3,"5,,N,23,",102.5,"5,,,N",,,,,,,,,,,,,,,,,,,,,,,,,,,,,,,,,,,,,,,,,,,,,,,,,,,,,,,,,,,,,,,,,,,,,,,,,,,,,,,,,,,,,,,,,,,,,,,,,,,,,,,,,,,,,,,,,,,,,,,,,,,,,,,,,,,,,,,,,,,,,,,,,,,,,,,,,,,,,,,,,,,,,,,,,,,,,,,,
169,US1TXWK0029,2021-04,30.608048,-95.5453,112.2,"HUNTSVILLE 7.2 S, TX US",,,,,,,,,,,,,,,,,165.5,"2,a,,N",,,,,,,,,,,,,,,,,,,,,,,,,,,,,,,,,,,,,,,,,,,,,,,,,,,,,,,,,,,,,,,,,,,,,,,,,,,,,,,,,,,,,,,,,,,,,,,,,,,,,,,,,,,,,,,,,,,,,,,,,,,,,,,,,,,,,,,,,,,,,,,,,,,,,,,,,,,,,,,,,,,,,,,,,,,,,,,,
170,US1TXWK0031,2022-05,30.64367,-95.54865,117.7,"HUNTSVILLE 4.7 S, TX US",4.0,",N",4.0,",N",1.0,",N",0.0,",N",20220531.0,"+,,N",20220506.0,",,N",0.0,",,N,31,+",63.5,",,N,06,",112.5,",,,N",0.0,",,,N",0.0,",N",20220531.0,"+,,N",0.0,",,N,31,+",,,,,,,,,,,,,,,,,,,,,,,,,,,,,,,,,,,,,,,,,,,,,,,,,,,,,,,,,,,,,,,,,,,,,,,,,,,,,,,,,,,,,,,,,,,,,,,,,,,,,,,,,,,,,,,,,,,,,,,,,,,,,,,,,,,,,,,,,,,,,,,,,,,,,,,,,,,,,,,,,,,,,,,,
171,US1TXWK0032,2022-08,30.731108,-95.573662,115.5,"HUNTSVILLE 1.9 NW, TX US",10.0,"5,N",4.0,"5,N",1.0,"5,N",,,,,20220831.0,",5,N",,,72.4,"5,,N,31,",108.2,"5,,,N",,,,,,,,,,,,,,,,,,,,,,,,,,,,,,,,,,,,,,,,,,,,,,,,,,,,,,,,,,,,,,,,,,,,,,,,,,,,,,,,,,,,,,,,,,,,,,,,,,,,,,,,,,,,,,,,,,,,,,,,,,,,,,,,,,,,,,,,,,,,,,,,,,,,,,,,,,,,,,,,,,,,,,,,,,,,,,,,
172,US1TXWL0001,2011-10,29.86875,-95.98777,53.9,"BROOKSHIRE 6.3 NNW, TX US",3.0,"2,N",3.0,"2,N",1.0,"2,N",0.0,"5,N",20111031.0,"+,5,N",20111010.0,",2,N",0.0,"5,,N,31,+",44.7,"2,,N,10,",57.6,"2,,,N",0.0,"5,,,N",,,,,,,,,,,,,,,,,,,,,,,,,,,,,,,,,,,,,,,,,,,,,,,,,,,,,,,,,,,,,,,,,,,,,,,,,,,,,,,,,,,,,,,,,,,,,,,,,,,,,,,,,,,,,,,,,,,,,,,,,,,,,,,,,,,,,,,,,,,,,,,,,,,,,,,,,,,,,,,,,,,,,,,,,,,,,,
173,US1TXWL0004,2012-10,30.1382007598877,-96.105094909668,71.6,"HEMPSTEAD 3.4 NNW, TX US",8.0,"5,N",4.0,"5,N",0.0,"5,N",,,,,20121027.0,",5,N",,,21.6,"5,,N,27,",66.0,"5,,,N",,,,,,,,,,,,,,,,,,,,,,,,,,,,,,,,,,,,,,,,,,,,,,,,,,,,,,,,,,,,,,,,,,,,,,,,,,,,,,,,,,,,,,,,,,,,,,,,,,,,,,,,,,,,,,,,,,,,,,,,,,,,,,,,,,,,,,,,,,,,,,,,,,,,,,,,,,,,,,,,,,,,,,,,,,,,,,,,
174,US1TXWL0007,2012-07,30.1668329536915,-95.8466302603483,80.8,"HOCKLEY 9.6 N, TX US",6.0,",N",6.0,",N",3.0,",N",,,,,20120711.0,",,N",,,193.8,",,N,11,",425.0,",,,N",,,,,,,,,,,,,,,,,,,,,,,,,,,,,,,,,,,,,,,,,,,,,,,,,,,,,,,,,,,,,,,,,,,,,,,,,,,,,,,,,,,,,,,,,,,,,,,,,,,,,,,,,,,,,,,,,,,,,,,,,,,,,,,,,,,,,,,,,,,,,,,,,,,,,,,,,,,,,,,,,,,,,,,,,,,,,,,,
175,US1TXWL0009,2013-03,29.8728923499584,-96.0029789060354,46.9,"BROOKSHIRE 6.9 NNW, TX US",3.0,"3,N",2.0,"3,N",0.0,"3,N",,,,,20130320.0,",3,N",,,22.9,"3,,N,20,",35.1,"3,,,N",,,,,,,,,,,,,,,,,,,,,,,,,,,,,,,,,,,,,,,,,,,,,,,,,,,,,,,,,,,,,,,,,,,,,,,,,,,,,,,,,,,,,,,,,,,,,,,,,,,,,,,,,,,,,,,,,,,,,,,,,,,,,,,,,,,,,,,,,,,,,,,,,,,,,,,,,,,,,,,,,,,,,,,,,,,,,,,,
176,US1TXWM0001,2006-04,30.650374,-97.706937,243.8,"GEORGETOWN 1.2 W, TX US",5.0,",N",4.0,",N",2.0,",N",0.0,",N",20060430.0,"+,,N",20060421.0,",,N",0.0,",,N,30,+",73.9,",,N,21,",110.3,",,,N",0.0,",,,N",,,,,,,,,,,,,,,,,,,,,,,,,,,,,,,,,,,,,,,,,,,,,,,,,,,,,,,,,,,,,,,,,,,,,,,,,,,,,,,,,,,,,,,,,,,,,,,,,,,,,,,,,,,,,,,,,,,,,,,,,,,,,,,,,,,,,,,,,,,,,,,,,,,,,,,,,,,,,,,,,,,,,,,,,,,,,,
177,US1TXWM0003,2006-07,30.525475,-97.614625,203.0,"ROUND ROCK 3.5 E, TX US",6.0,",N",1.0,",N",0.0,",N",0.0,",N",20060731.0,"+,,N",20060705.0,",,N",0.0,",,N,31,+",24.9,",,N,05,",29.5,",,,N",0.0,",,,N",,,,,,,,,,,,,,,,,,,,,,,,,,,,,,,,,,,,,,,,,,,,,,,,,,,,,,,,,,,,,,,,,,,,,,,,,,,,,,,,,,,,,,,,,,,,,,,,,,,,,,,,,,,,,,,,,,,,,,,,,,,,,,,,,,,,,,,,,,,,,,,,,,,,,,,,,,,,,,,,,,,,,,,,,,,,,,
178,US1TXWM0004,2007-04,30.651553,-97.706978,235.9,"GEORGETOWN 1.3 WNW, TX US",,,,,,,,,,,,,,,,,37.8,"2,a,,N",,,,,,,,,,,,,,,,,,,,,,,,,,,,,,,,,,,,,,,,,,,,,,,,,,,,,,,,,,,,,,,,,,,,,,,,,,,,,,,,,,,,,,,,,,,,,,,,,,,,,,,,,,,,,,,,,,,,,,,,,,,,,,,,,,,,,,,,,,,,,,,,,,,,,,,,,,,,,,,,,,,,,,,,,,,,,,,,
179,US1TXWM0007,2007-12,30.45375,-97.752095,260.9,"JOLLYVILLE 0.3 NNW, TX US",7.0,"2,N",3.0,"2,N",0.0,"2,N",0.0,"2,N",20071231.0,"+,2,N",20071215.0,",2,N",0.0,"2,,N,31,+",8.1,"2,,N,15,",21.6,"2,,,N",0.0,"2,,,N",,,,,,,,,,,,,,,,,,,,,,,,,,,,,,,,,,,,,,,,,,,,,,,,,,,,,,,,,,,,,,,,,,,,,,,,,,,,,,,,,,,,,,,,,,,,,,,,,,,,,,,,,,,,,,,,,,,,,,,,,,,,,,,,,,,,,,,,,,,,,,,,,,,,,,,,,,,,,,,,,,,,,,,,,,,,,,
180,US1TXWM0009,2007-06,30.5486,-97.6261,216.1,"ROUND ROCK 3.6 ENE, TX US",14.0,",N",13.0,",N",3.0,",N",0.0,",N",20070630.0,"+,,N",20070628.0,",,N",0.0,",,N,30,+",98.8,",,N,28,",279.6,",,,N",0.0,",,,N",,,,,,,,,,,,,,,,,,,,,,,,,,,,,,,,,,,,,,,,,,,,,,,,,,,,,,,,,,,,,,,,,,,,,,,,,,,,,,,,,,,,,,,,,,,,,,,,,,,,,,,,,,,,,,,,,,,,,,,,,,,,,,,,,,,,,,,,,,,,,,,,,,,,,,,,,,,,,,,,,,,,,,,,,,,,,,
181,US1TXWM0010,2007-11,30.724344,-97.709996,247.5,"GEORGETOWN 5.5 NNW, TX US",6.0,"2,N",3.0,"2,N",0.0,"2,N",0.0,"2,N",20071130.0,"+,2,N",20071125.0,",2,N",0.0,"2,,N,30,+",21.8,"2,,N,25,",36.6,"2,,,N",0.0,"2,,,N",,,,,,,,,,,,,,,,,,,,,,,,,,,,,,,,,,,,,,,,,,,,,,,,,,,,,,,,,,,,,,,,,,,,,,,,,,,,,,,,,,,,,,,,,,,,,,,,,,,,,,,,,,,,,,,,,,,,,,,,,,,,,,,,,,,,,,,,,,,,,,,,,,,,,,,,,,,,,,,,,,,,,,,,,,,,,,
182,US1TXWM0011,2007-07,30.654638,-97.686728,234.1,"GEORGETOWN 0.5 N, TX US",,,,,,,0.0,"4,N",20070731.0,"+,4,N",,,0.0,"4,,N,31,+",,,204.0,"4,a,,N",0.0,"4,,,N",,,,,,,,,,,,,,,,,,,,,,,,,,,,,,,,,,,,,,,,,,,,,,,,,,,,,,,,,,,,,,,,,,,,,,,,,,,,,,,,,,,,,,,,,,,,,,,,,,,,,,,,,,,,,,,,,,,,,,,,,,,,,,,,,,,,,,,,,,,,,,,,,,,,,,,,,,,,,,,,,,,,,,,,,,,,,,
183,US1TXWM0012,2007-08,30.5047,-97.5937,228.9,"PFLUGERVILLE 4.7 NNE, TX US",5.0,",N",3.0,",N",0.0,",N",0.0,",N",20070831.0,"+,,N",20070817.0,",,N",0.0,",,N,31,+",13.0,",,N,17,",23.2,",,,N",0.0,",,,N",,,,,,,,,,,,,,,,,,,,,,,,,,,,,,,,,,,,,,,,,,,,,,,,,,,,,,,,,,,,,,,,,,,,,,,,,,,,,,,,,,,,,,,,,,,,,,,,,,,,,,,,,,,,,,,,,,,,,,,,,,,,,,,,,,,,,,,,,,,,,,,,,,,,,,,,,,,,,,,,,,,,,,,,,,,,,,
184,US1TXWM0013,2007-08,30.580972,-97.876524,315.8,"LEANDER 1.6 NW, TX US",7.0,"5,N",3.0,"5,N",0.0,"5,N",0.0,"5,N",20070831.0,"+,5,N",20070830.0,",5,N",0.0,"5,,N,31,+",12.2,"5,,N,30,",30.5,"5,,,N",0.0,"5,,,N",,,,,,,,,,,,,,,,,,,,,,,,,,,,,,,,,,,,,,,,,,,,,,,,,,,,,,,,,,,,,,,,,,,,,,,,,,,,,,,,,,,,,,,,,,,,,,,,,,,,,,,,,,,,,,,,,,,,,,,,,,,,,,,,,,,,,,,,,,,,,,,,,,,,,,,,,,,,,,,,,,,,,,,,,,,,,,
185,US1TXWM0014,2007-09,30.4933,-97.76998,274.0,"BRUSHY CREEK 2.3 SW, TX US",6.0,",N",5.0,",N",1.0,",N",0.0,",N",20070930.0,"+,,N",20070911.0,",,N",0.0,",,N,30,+",30.5,",,N,11,",84.8,",,,N",0.0,",,,N",,,,,,,,,,,,,,,,,,,,,,,,,,,,,,,,,,,,,,,,,,,,,,,,,,,,,,,,,,,,,,,,,,,,,,,,,,,,,,,,,,,,,,,,,,,,,,,,,,,,,,,,,,,,,,,,,,,,,,,,,,,,,,,,,,,,,,,,,,,,,,,,,,,,,,,,,,,,,,,,,,,,,,,,,,,,,,
186,US1TXWM0016,2007-09,30.4779,-97.8474,303.9,"CEDAR PARK 2.7 SSW, TX US",7.0,",N",5.0,",N",1.0,",N",0.0,",N",20070930.0,"+,,N",20070905.0,",,N",0.0,",,N,30,+",38.6,",,N,05,",82.0,",,,N",0.0,",,,N",,,,,,,,,,,,,,,,,,,,,,,,,,,,,,,,,,,,,,,,,,,,,,,,,,,,,,,,,,,,,,,,,,,,,,,,,,,,,,,,,,,,,,,,,,,,,,,,,,,,,,,,,,,,,,,,,,,,,,,,,,,,,,,,,,,,,,,,,,,,,,,,,,,,,,,,,,,,,,,,,,,,,,,,,,,,,,
187,US1TXWM0021,2007-12,30.820059,-97.605882,274.3,"JARRELL 0.3 S, TX US",5.0,",N",2.0,",N",0.0,",N",0.0,",N",20071231.0,"+,,N",20071212.0,",,N",0.0,",,N,31,+",11.9,",,N,12,",23.6,",,,N",0.0,",,,N",,,,,,,,,,,,,,,,,,,,,,,,,,,,,,,,,,,,,,,,,,,,,,,,,,,,,,,,,,,,,,,,,,,,,,,,,,,,,,,,,,,,,,,,,,,,,,,,,,,,,,,,,,,,,,,,,,,,,,,,,,,,,,,,,,,,,,,,,,,,,,,,,,,,,,,,,,,,,,,,,,,,,,,,,,,,,,
188,US1TXWM0022,2007-11,30.671343,-97.928297,317.3,"LIBERTY HILL 0.6 NNW, TX US",4.0,",N",3.0,",N",0.0,",N",0.0,",N",20071130.0,"+,,N",20071125.0,",,N",0.0,",,N,30,+",16.8,",,N,25,",30.5,",,,N",0.0,",,,N",,,,,,,,,,,,,,,,,,,,,,,,,,,,,,,,,,,,,,,,,,,,,,,,,,,,,,,,,,,,,,,,,,,,,,,,,,,,,,,,,,,,,,,,,,,,,,,,,,,,,,,,,,,,,,,,,,,,,,,,,,,,,,,,,,,,,,,,,,,,,,,,,,,,,,,,,,,,,,,,,,,,,,,,,,,,,,
189,US1TXWM0023,2007-10,30.680324,-97.950799,315.8,"LIBERTY HILL 2.0 NW, TX US",2.0,"2,N",1.0,"2,N",0.0,"2,N",0.0,"2,N",20071031.0,"+,2,N",20071009.0,",2,N",0.0,"2,,N,31,+",6.4,"2,,N,09,",16.1,",a,,N",0.0,"2,,,N",,,,,,,,,,,,,,,,,,,,,,,,,,,,,,,,,,,,,,,,,,,,,,,,,,,,,,,,,,,,,,,,,,,,,,,,,,,,,,,,,,,,,,,,,,,,,,,,,,,,,,,,,,,,,,,,,,,,,,,,,,,,,,,,,,,,,,,,,,,,,,,,,,,,,,,,,,,,,,,,,,,,,,,,,,,,,,
190,US1TXWM0024,2007-10,30.6164,-97.7091,253.3,"GEORGETOWN 2.5 SSW, TX US",3.0,",N",1.0,",N",0.0,",N",0.0,",N",20071031.0,"+,,N",20071023.0,",,N",0.0,",,N,31,+",10.2,",,N,23,",12.3,",,,N",0.0,",,,N",,,,,,,,,,,,,,,,,,,,,,,,,,,,,,,,,,,,,,,,,,,,,,,,,,,,,,,,,,,,,,,,,,,,,,,,,,,,,,,,,,,,,,,,,,,,,,,,,,,,,,,,,,,,,,,,,,,,,,,,,,,,,,,,,,,,,,,,,,,,,,,,,,,,,,,,,,,,,,,,,,,,,,,,,,,,,,
191,US1TXWM0026,2010-11,30.713129,-97.668105,228.9,"GEORGETOWN 4.7 NNE, TX US",5.0,",N",2.0,",N",0.0,",N",,,,,20101102.0,",,N",,,4.8,",,N,02,",13.0,",,,N",,,,,,,,,,,,,,,,,,,,,,,,,,,,,,,,,,,,,,,,,,,,,,,,,,,,,,,,,,,,,,,,,,,,,,,,,,,,,,,,,,,,,,,,,,,,,,,,,,,,,,,,,,,,,,,,,,,,,,,,,,,,,,,,,,,,,,,,,,,,,,,,,,,,,,,,,,,,,,,,,,,,,,,,,,,,,,,,
192,US1TXWM0030,2007-10,30.682,-97.9122,323.7,"LIBERTY HILL 1.3 NNE, TX US",3.0,",N",2.0,",N",0.0,",N",0.0,",N",20071031.0,"+,,N",20071022.0,",,N",0.0,",,N,31,+",12.7,",,N,22,",22.4,",,,N",0.0,",,,N",,,,,,,,,,,,,,,,,,,,,,,,,,,,,,,,,,,,,,,,,,,,,,,,,,,,,,,,,,,,,,,,,,,,,,,,,,,,,,,,,,,,,,,,,,,,,,,,,,,,,,,,,,,,,,,,,,,,,,,,,,,,,,,,,,,,,,,,,,,,,,,,,,,,,,,,,,,,,,,,,,,,,,,,,,,,,,
193,US1TXWM0033,2007-11,30.778193,-97.748227,290.8,"FLORENCE 5.0 SSE, TX US",4.0,",N",3.0,",N",0.0,",N",0.0,",N",20071130.0,"+,,N",20071125.0,",,N",0.0,",,N,30,+",19.8,",,N,25,",39.9,",,,N",0.0,",,,N",,,,,,,,,,,,,,,,,,,,,,,,,,,,,,,,,,,,,,,,,,,,,,,,,,,,,,,,,,,,,,,,,,,,,,,,,,,,,,,,,,,,,,,,,,,,,,,,,,,,,,,,,,,,,,,,,,,,,,,,,,,,,,,,,,,,,,,,,,,,,,,,,,,,,,,,,,,,,,,,,,,,,,,,,,,,,,
194,US1TXWM0034,2007-11,30.67307,-97.65698,223.1,"GEORGETOWN 2.5 NE, TX US",4.0,",N",2.0,",N",0.0,",N",0.0,",N",20071130.0,"+,,N",20071125.0,",,N",0.0,",,N,30,+",21.8,",,N,25,",29.2,",,,N",0.0,",,,N",,,,,,,,,,,,,,,,,,,,,,,,,,,,,,,,,,,,,,,,,,,,,,,,,,,,,,,,,,,,,,,,,,,,,,,,,,,,,,,,,,,,,,,,,,,,,,,,,,,,,,,,,,,,,,,,,,,,,,,,,,,,,,,,,,,,,,,,,,,,,,,,,,,,,,,,,,,,,,,,,,,,,,,,,,,,,,
195,US1TXWM0035,2007-12,30.713117,-97.9559,335.0,"BERTRAM 6.4 ESE, TX US",7.0,",N",2.0,",N",0.0,",N",0.0,",N",20071231.0,"+,,N",20071212.0,",,N",0.0,",,N,31,+",11.2,",,N,12,",20.4,",,,N",0.0,",,,N",,,,,,,,,,,,,,,,,,,,,,,,,,,,,,,,,,,,,,,,,,,,,,,,,,,,,,,,,,,,,,,,,,,,,,,,,,,,,,,,,,,,,,,,,,,,,,,,,,,,,,,,,,,,,,,,,,,,,,,,,,,,,,,,,,,,,,,,,,,,,,,,,,,,,,,,,,,,,,,,,,,,,,,,,,,,,,
196,US1TXWM0036,2008-02,30.54981,-97.851524,310.3,"LEANDER 1.0 SSE, TX US",2.0,",N",2.0,",N",0.0,",N",0.0,",N",20080229.0,"+,,N",20080216.0,",,N",0.0,",,N,29,+",4.6,",,N,16,",8.9,",,,N",0.0,",,,N",,,,,,,,,,,,,,,,,,,,,,,,,,,,,,,,,,,,,,,,,,,,,,,,,,,,,,,,,,,,,,,,,,,,,,,,,,,,,,,,,,,,,,,,,,,,,,,,,,,,,,,,,,,,,,,,,,,,,,,,,,,,,,,,,,,,,,,,,,,,,,,,,,,,,,,,,,,,,,,,,,,,,,,,,,,,,,
197,US1TXWM0039,2008-03,30.503601,-97.671138,230.1,"ROUND ROCK 1.0 S, TX US",9.0,"3,N",4.0,"3,N",1.0,"3,N",0.0,"3,N",20080331.0,"+,3,N",20080319.0,",3,N",0.0,"3,,N,31,+",33.0,"3,,N,19,",79.5,"3,,,N",0.0,"3,,,N",,,,,,,,,,,,,,,,,,,,,,,,,,,,,,,,,,,,,,,,,,,,,,,,,,,,,,,,,,,,,,,,,,,,,,,,,,,,,,,,,,,,,,,,,,,,,,,,,,,,,,,,,,,,,,,,,,,,,,,,,,,,,,,,,,,,,,,,,,,,,,,,,,,,,,,,,,,,,,,,,,,,,,,,,,,,,,
198,US1TXWM0040,2008-03,30.62267,-97.70028,245.1,"GEORGETOWN 1.9 SSW, TX US",7.0,"5,N",4.0,"5,N",2.0,"5,N",0.0,"5,N",20080331.0,"+,5,N",20080319.0,",5,N",0.0,"5,,N,31,+",48.8,"5,,N,19,",94.8,"5,,,N",0.0,"5,,,N",,,,,,,,,,,,,,,,,,,,,,,,,,,,,,,,,,,,,,,,,,,,,,,,,,,,,,,,,,,,,,,,,,,,,,,,,,,,,,,,,,,,,,,,,,,,,,,,,,,,,,,,,,,,,,,,,,,,,,,,,,,,,,,,,,,,,,,,,,,,,,,,,,,,,,,,,,,,,,,,,,,,,,,,,,,,,,
199,US1TXWM0041,2008-04,30.508214,-97.816292,289.0,"CEDAR PARK 1.0 ESE, TX US",7.0,"3,N",6.0,"3,N",0.0,"3,N",0.0,"3,N",20080430.0,"+,3,N",20080418.0,",3,N",0.0,"3,,N,30,+",21.6,"3,,N,18,",73.2,"3,,,N",0.0,"3,,,N",,,,,,,,,,,,,,,,,,,,,,,,,,,,,,,,,,,,,,,,,,,,,,,,,,,,,,,,,,,,,,,,,,,,,,,,,,,,,,,,,,,,,,,,,,,,,,,,,,,,,,,,,,,,,,,,,,,,,,,,,,,,,,,,,,,,,,,,,,,,,,,,,,,,,,,,,,,,,,,,,,,,,,,,,,,,,,
200,US1TXWM0042,2008-03,30.493,-97.7373,273.1,"BRUSHY CREEK 1.4 S, TX US",7.0,"3,N",5.0,"3,N",2.0,"3,N",0.0,"3,N",20080331.0,"+,3,N",20080319.0,",3,N",0.0,"3,,N,31,+",42.4,"3,,N,19,",100.5,",a,,N",0.0,"3,,,N",,,,,,,,,,,,,,,,,,,,,,,,,,,,,,,,,,,,,,,,,,,,,,,,,,,,,,,,,,,,,,,,,,,,,,,,,,,,,,,,,,,,,,,,,,,,,,,,,,,,,,,,,,,,,,,,,,,,,,,,,,,,,,,,,,,,,,,,,,,,,,,,,,,,,,,,,,,,,,,,,,,,,,,,,,,,,,
201,US1TXWM0044,2008-03,30.455636,-97.769188,271.9,"JOLLYVILLE 1.2 WNW, TX US",8.0,"5,N",1.0,"5,N",1.0,"5,N",0.0,"5,N",20080331.0,"+,5,N",20080319.0,",5,N",0.0,"5,,N,31,+",26.2,"5,,N,19,",30.4,"5,,,N",0.0,"5,,,N",,,,,,,,,,,,,,,,,,,,,,,,,,,,,,,,,,,,,,,,,,,,,,,,,,,,,,,,,,,,,,,,,,,,,,,,,,,,,,,,,,,,,,,,,,,,,,,,,,,,,,,,,,,,,,,,,,,,,,,,,,,,,,,,,,,,,,,,,,,,,,,,,,,,,,,,,,,,,,,,,,,,,,,,,,,,,,
202,US1TXWM0046,2008-11,30.485942,-97.764397,267.0,"BRUSHY CREEK 2.4 SW, TX US",3.0,"4,N",1.0,"4,N",0.0,"4,N",0.0,"4,N",20081130.0,"+,4,N",20081112.0,",4,N",0.0,"4,,N,30,+",11.4,"4,,N,12,",13.7,"4,,,N",0.0,"4,,,N",,,,,,,,,,,,,,,,,,,,,,,,,,,,,,,,,,,,,,,,,,,,,,,,,,,,,,,,,,,,,,,,,,,,,,,,,,,,,,,,,,,,,,,,,,,,,,,,,,,,,,,,,,,,,,,,,,,,,,,,,,,,,,,,,,,,,,,,,,,,,,,,,,,,,,,,,,,,,,,,,,,,,,,,,,,,,,
203,US1TXWM0048,2008-11,30.4458,-97.235,164.9,"THRALL 10.5 SSE, TX US",4.0,"5,N",0.0,"5,N",0.0,"5,N",0.0,"5,N",20081130.0,"+,5,N",20081106.0,",5,N",0.0,"5,,N,30,+",1.0,"5,,N,06,",4.3,",a,,N",0.0,"5,,,N",,,,,,,,,,,,,,,,,,,,,,,,,,,,,,,,,,,,,,,,,,,,,,,,,,,,,,,,,,,,,,,,,,,,,,,,,,,,,,,,,,,,,,,,,,,,,,,,,,,,,,,,,,,,,,,,,,,,,,,,,,,,,,,,,,,,,,,,,,,,,,,,,,,,,,,,,,,,,,,,,,,,,,,,,,,,,,
204,US1TXWM0050,2008-05,30.520855,-97.769974,276.1,"BRUSHY CREEK 1.9 WNW, TX US",10.0,",N",4.0,",N",1.0,",N",0.0,",N",20080531.0,"+,,N",20080515.0,",,N",0.0,",,N,31,+",51.3,",,N,15,",85.0,",,,N",0.0,",,,N",,,,,,,,,,,,,,,,,,,,,,,,,,,,,,,,,,,,,,,,,,,,,,,,,,,,,,,,,,,,,,,,,,,,,,,,,,,,,,,,,,,,,,,,,,,,,,,,,,,,,,,,,,,,,,,,,,,,,,,,,,,,,,,,,,,,,,,,,,,,,,,,,,,,,,,,,,,,,,,,,,,,,,,,,,,,,,
205,US1TXWM0054,2008-07,30.5508,-97.8202,292.0,"LEANDER 2.5 ESE, TX US",4.0,",N",2.0,",N",0.0,",N",0.0,",N",20080731.0,"+,,N",20080725.0,",,N",0.0,",,N,31,+",24.4,",,N,25,",30.8,",,,N",0.0,",,,N",,,,,,,,,,,,,,,,,,,,,,,,,,,,,,,,,,,,,,,,,,,,,,,,,,,,,,,,,,,,,,,,,,,,,,,,,,,,,,,,,,,,,,,,,,,,,,,,,,,,,,,,,,,,,,,,,,,,,,,,,,,,,,,,,,,,,,,,,,,,,,,,,,,,,,,,,,,,,,,,,,,,,,,,,,,,,,
206,US1TXWM0055,2013-11,30.4597,-97.788,281.0,"ANDERSON MILL 1.1 ENE, TX US",,,,,,,,,,,,,,,,,83.0,"5,a,,N",,,,,,,,,,,,,,,,,,,,,,,,,,,,,,,,,,,,,,,,,,,,,,,,,,,,,,,,,,,,,,,,,,,,,,,,,,,,,,,,,,,,,,,,,,,,,,,,,,,,,,,,,,,,,,,,,,,,,,,,,,,,,,,,,,,,,,,,,,,,,,,,,,,,,,,,,,,,,,,,,,,,,,,,,,,,,,,,
207,US1TXWM0058,2008-08,30.760289,-97.85699,321.6,"ANDICE 1.6 SW, TX US",5.0,"5,N",2.0,"5,N",1.0,"5,N",0.0,"5,N",20080831.0,"+,5,N",20080820.0,",5,N",0.0,"5,,N,31,+",26.4,"5,,N,20,",37.3,"5,,,N",0.0,"5,,,N",,,,,,,,,,,,,,,,,,,,,,,,,,,,,,,,,,,,,,,,,,,,,,,,,,,,,,,,,,,,,,,,,,,,,,,,,,,,,,,,,,,,,,,,,,,,,,,,,,,,,,,,,,,,,,,,,,,,,,,,,,,,,,,,,,,,,,,,,,,,,,,,,,,,,,,,,,,,,,,,,,,,,,,,,,,,,,
208,US1TXWM0061,2008-09,30.466649,-97.825494,301.1,"ANDERSON MILL 1.4 NW, TX US",3.0,"4,N",1.0,"4,N",0.0,"4,N",0.0,"4,N",20080930.0,"+,4,N",20080910.0,",4,N",0.0,"4,,N,30,+",2.5,"4,,N,10,",3.8,"4,,,N",0.0,"4,,,N",,,,,,,,,,,,,,,,,,,,,,,,,,,,,,,,,,,,,,,,,,,,,,,,,,,,,,,,,,,,,,,,,,,,,,,,,,,,,,,,,,,,,,,,,,,,,,,,,,,,,,,,,,,,,,,,,,,,,,,,,,,,,,,,,,,,,,,,,,,,,,,,,,,,,,,,,,,,,,,,,,,,,,,,,,,,,,
209,US1TXWM0064,2008-10,30.490126,-97.836426,287.4,"CEDAR PARK 1.7 S, TX US",4.0,"4,N",3.0,"4,N",0.0,"4,N",0.0,"4,N",20081031.0,"+,4,N",20081015.0,",4,N",0.0,"4,,N,31,+",24.1,"4,,N,15,",47.7,"4,,,N",0.0,"4,,,N",,,,,,,,,,,,,,,,,,,,,,,,,,,,,,,,,,,,,,,,,,,,,,,,,,,,,,,,,,,,,,,,,,,,,,,,,,,,,,,,,,,,,,,,,,,,,,,,,,,,,,,,,,,,,,,,,,,,,,,,,,,,,,,,,,,,,,,,,,,,,,,,,,,,,,,,,,,,,,,,,,,,,,,,,,,,,,
210,US1TXWM0065,2008-09,30.561739,-97.302686,162.8,"TAYLOR 6.4 E, TX US",2.0,"5,N",1.0,"5,N",0.0,"5,N",0.0,"5,N",20080930.0,"+,5,N",20080910.0,",5,N",0.0,"5,,N,30,+",6.6,"5,,N,10,",7.9,"1,a,,N",0.0,"5,,,N",,,,,,,,,,,,,,,,,,,,,,,,,,,,,,,,,,,,,,,,,,,,,,,,,,,,,,,,,,,,,,,,,,,,,,,,,,,,,,,,,,,,,,,,,,,,,,,,,,,,,,,,,,,,,,,,,,,,,,,,,,,,,,,,,,,,,,,,,,,,,,,,,,,,,,,,,,,,,,,,,,,,,,,,,,,,,,
211,US1TXWM0066,2009-04,30.716001,-97.550737,231.6,"GRANGER 6.5 W, TX US",7.0,"2,N",5.0,"2,N",2.0,"2,N",,,,,20090427.0,",2,N",,,86.9,"2,,N,27,",175.0,"2,,,N",,,,,,,,,,,,,,,,,,,,,,,,,,,,,,,,,,,,,,,,,,,,,,,,,,,,,,,,,,,,,,,,,,,,,,,,,,,,,,,,,,,,,,,,,,,,,,,,,,,,,,,,,,,,,,,,,,,,,,,,,,,,,,,,,,,,,,,,,,,,,,,,,,,,,,,,,,,,,,,,,,,,,,,,,,,,,,,,
212,US1TXWM0068,2009-01,30.5907,-97.6509,253.0,"GEORGETOWN 4.5 SSE, TX US",6.0,",N",2.0,",N",0.0,",N",,,,,20090106.0,",,N",,,10.2,",,N,06,",17.7,",,,N",,,,,,,,,,,,,,,,,,,,,,,,,,,,,,,,,,,,,,,,,,,,,,,,,,,,,,,,,,,,,,,,,,,,,,,,,,,,,,,,,,,,,,,,,,,,,,,,,,,,,,,,,,,,,,,,,,,,,,,,,,,,,,,,,,,,,,,,,,,,,,,,,,,,,,,,,,,,,,,,,,,,,,,,,,,,,,,,
213,US1TXWM0070,2009-11,30.500982,-97.695204,225.2,"ROUND ROCK 1.8 SW, TX US",7.0,"3,N",5.0,"3,N",1.0,"3,N",,,,,20091121.0,",3,N",,,25.4,"3,,N,21,",65.4,"3,,,N",,,,,,,,,,,,,,,,,,,,,,,,,,,,,,,,,,,,,,,,,,,,,,,,,,,,,,,,,,,,,,,,,,,,,,,,,,,,,,,,,,,,,,,,,,,,,,,,,,,,,,,,,,,,,,,,,,,,,,,,,,,,,,,,,,,,,,,,,,,,,,,,,,,,,,,,,,,,,,,,,,,,,,,,,,,,,,,,
214,US1TXWM0071,2009-05,30.590688,-97.613651,252.1,"GEORGETOWN 5.8 SE, TX US",4.0,",N",3.0,",N",2.0,",N",0.0,"4,N",20090531.0,"+,4,N",20090517.0,",,N",0.0,"4,,N,31,+",40.1,",,N,17,",69.6,",,,N",0.0,"4,,,N",,,,,,,,,,,,,,,,,,,,,,,,,,,,,,,,,,,,,,,,,,,,,,,,,,,,,,,,,,,,,,,,,,,,,,,,,,,,,,,,,,,,,,,,,,,,,,,,,,,,,,,,,,,,,,,,,,,,,,,,,,,,,,,,,,,,,,,,,,,,,,,,,,,,,,,,,,,,,,,,,,,,,,,,,,,,,,
215,US1TXWM0072,2009-06,30.56092,-97.67109,259.4,"ROUND ROCK 3.0 N, TX US",2.0,",N",2.0,",N",0.0,",N",0.0,"2,N",20090630.0,"+,2,N",20090612.0,",,N",0.0,"2,,N,30,+",20.6,",,N,12,",23.1,",,,N",0.0,"2,,,N",,,,,,,,,,,,,,,,,,,,,,,,,,,,,,,,,,,,,,,,,,,,,,,,,,,,,,,,,,,,,,,,,,,,,,,,,,,,,,,,,,,,,,,,,,,,,,,,,,,,,,,,,,,,,,,,,,,,,,,,,,,,,,,,,,,,,,,,,,,,,,,,,,,,,,,,,,,,,,,,,,,,,,,,,,,,,,
216,US1TXWM0073,2009-07,30.556073,-97.534265,207.0,"HUTTO 0.8 NNE, TX US",3.0,",N",3.0,",N",1.0,",N",0.0,"5,N",20090731.0,"+,5,N",20090731.0,",,N",0.0,"5,,N,31,+",28.4,",,N,31,",55.3,",,,N",0.0,"5,,,N",,,,,,,,,,,,,,,,,,,,,,,,,,,,,,,,,,,,,,,,,,,,,,,,,,,,,,,,,,,,,,,,,,,,,,,,,,,,,,,,,,,,,,,,,,,,,,,,,,,,,,,,,,,,,,,,,,,,,,,,,,,,,,,,,,,,,,,,,,,,,,,,,,,,,,,,,,,,,,,,,,,,,,,,,,,,,,
217,US1TXWM0074,2009-08,30.634132,-97.638732,229.8,"GEORGETOWN 3.0 ESE, TX US",6.0,"3,N",2.0,"3,N",1.0,"3,N",,,,,20090828.0,",3,N",,,36.1,"3,,N,28,",42.0,"3,,,N",,,,,,,,,,,,,,,,,,,,,,,,,,,,,,,,,,,,,,,,,,,,,,,,,,,,,,,,,,,,,,,,,,,,,,,,,,,,,,,,,,,,,,,,,,,,,,,,,,,,,,,,,,,,,,,,,,,,,,,,,,,,,,,,,,,,,,,,,,,,,,,,,,,,,,,,,,,,,,,,,,,,,,,,,,,,,,,,
218,US1TXWM0076,2009-09,30.453555,-97.206004,168.9,"THRALL 10.8 SSE, TX US",11.0,",N",6.0,",N",2.0,",N",,,,,20090912.0,",,N",,,52.3,",,N,12,",107.9,",,,N",,,,,,,,,,,,,,,,,,,,,,,,,,,,,,,,,,,,,,,,,,,,,,,,,,,,,,,,,,,,,,,,,,,,,,,,,,,,,,,,,,,,,,,,,,,,,,,,,,,,,,,,,,,,,,,,,,,,,,,,,,,,,,,,,,,,,,,,,,,,,,,,,,,,,,,,,,,,,,,,,,,,,,,,,,,,,,,,
219,US1TXWM0077,2010-01,30.492712,-97.761706,275.5,"JOLLYVILLE 3.1 NNW, TX US",7.0,"3,N",4.0,"3,N",1.0,"3,N",,,,,20100116.0,",3,N",,,42.4,"3,,N,16,",90.8,"3,,,N",,,,,,,,,,,,,,,,,,,,,,,,,,,,,,,,,,,,,,,,,,,,,,,,,,,,,,,,,,,,,,,,,,,,,,,,,,,,,,,,,,,,,,,,,,,,,,,,,,,,,,,,,,,,,,,,,,,,,,,,,,,,,,,,,,,,,,,,,,,,,,,,,,,,,,,,,,,,,,,,,,,,,,,,,,,,,,,,
220,US1TXWM0078,2009-10,30.632556,-97.819536,307.5,"GEORGETOWN 8.0 W, TX US",16.0,"1,N",10.0,"1,N",4.0,"1,N",,,,,20091022.0,",1,N",,,72.1,"1,,N,22,",260.1,"1,,,N",,,,,,,,,,,,,,,,,,,,,,,,,,,,,,,,,,,,,,,,,,,,,,,,,,,,,,,,,,,,,,,,,,,,,,,,,,,,,,,,,,,,,,,,,,,,,,,,,,,,,,,,,,,,,,,,,,,,,,,,,,,,,,,,,,,,,,,,,,,,,,,,,,,,,,,,,,,,,,,,,,,,,,,,,,,,,,,,
221,US1TXWM0081,2012-01,30.504367,-97.573165,214.0,"HUTTO 3.4 SSW, TX US",5.0,",N",5.0,",N",1.0,",N",,,,,20120125.0,",,N",,,61.7,",,N,25,",98.5,",,,N",,,,,,,,,,,,,,,,,,,,,,,,,,,,,,,,,,,,,,,,,,,,,,,,,,,,,,,,,,,,,,,,,,,,,,,,,,,,,,,,,,,,,,,,,,,,,,,,,,,,,,,,,,,,,,,,,,,,,,,,,,,,,,,,,,,,,,,,,,,,,,,,,,,,,,,,,,,,,,,,,,,,,,,,,,,,,,,,
222,US1TXWM0088,2010-04,30.525611,-97.853201,312.4,"CEDAR PARK 1.5 WNW, TX US",6.0,"4,N",3.0,"4,N",0.0,"4,N",,,,,20100424.0,",4,N",,,19.3,"4,,N,24,",36.6,"4,,,N",,,,,,,,,,,,,,,,,,,,,,,,,,,,,,,,,,,,,,,,,,,,,,,,,,,,,,,,,,,,,,,,,,,,,,,,,,,,,,,,,,,,,,,,,,,,,,,,,,,,,,,,,,,,,,,,,,,,,,,,,,,,,,,,,,,,,,,,,,,,,,,,,,,,,,,,,,,,,,,,,,,,,,,,,,,,,,,,
223,US1TXWM0090,2010-05,30.5239,-97.7936,277.7,"CEDAR PARK 2.3 ENE, TX US",7.0,",N",3.0,",N",0.0,",N",,,,,20100515.0,",,N",,,22.9,",,N,15,",30.1,",,,N",,,,,,,,,,,,,,,,,,,,,,,,,,,,,,,,,,,,,,,,,,,,,,,,,,,,,,,,,,,,,,,,,,,,,,,,,,,,,,,,,,,,,,,,,,,,,,,,,,,,,,,,,,,,,,,,,,,,,,,,,,,,,,,,,,,,,,,,,,,,,,,,,,,,,,,,,,,,,,,,,,,,,,,,,,,,,,,,
224,US1TXWM0095,2011-06,30.533625,-97.852653,306.0,"CEDAR PARK 1.8 NW, TX US",1.0,"5,N",1.0,"5,N",1.0,"5,N",,,,,20110622.0,",5,N",,,36.3,"5,,N,22,",36.3,"5,,,N",,,,,,,,,,,,,,,,,,,,,,,,,,,,,,,,,,,,,,,,,,,,,,,,,,,,,,,,,,,,,,,,,,,,,,,,,,,,,,,,,,,,,,,,,,,,,,,,,,,,,,,,,,,,,,,,,,,,,,,,,,,,,,,,,,,,,,,,,,,,,,,,,,,,,,,,,,,,,,,,,,,,,,,,,,,,,,,,
225,US1TXWM0096,2011-03,30.70724,-97.722609,242.6,"GEORGETOWN 4.6 NNW, TX US",2.0,",N",1.0,",N",0.0,",N",,,,,20110305.0,",,N",,,6.4,",,N,05,",6.9,",,,N",,,,,,,,,,,,,,,,,,,,,,,,,,,,,,,,,,,,,,,,,,,,,,,,,,,,,,,,,,,,,,,,,,,,,,,,,,,,,,,,,,,,,,,,,,,,,,,,,,,,,,,,,,,,,,,,,,,,,,,,,,,,,,,,,,,,,,,,,,,,,,,,,,,,,,,,,,,,,,,,,,,,,,,,,,,,,,,,
226,US1TXWM0098,2011-04,30.471854,-97.832581,292.0,"CEDAR PARK 3.0 S, TX US",1.0,"3,N",1.0,"3,N",0.0,"3,N",0.0,"5,N",20110430.0,"+,5,N",20110411.0,",3,N",0.0,"5,,N,30,+",4.8,"3,,N,11,",4.8,"3,,,N",0.0,"5,,,N",,,,,,,,,,,,,,,,,,,,,,,,,,,,,,,,,,,,,,,,,,,,,,,,,,,,,,,,,,,,,,,,,,,,,,,,,,,,,,,,,,,,,,,,,,,,,,,,,,,,,,,,,,,,,,,,,,,,,,,,,,,,,,,,,,,,,,,,,,,,,,,,,,,,,,,,,,,,,,,,,,,,,,,,,,,,,,
227,US1TXWM0101,2011-11,30.522011,-97.539361,189.3,"HUTTO 1.7 S, TX US",7.0,"4,N",4.0,"4,N",1.0,"4,N",,,,,20111126.0,",4,N",,,25.4,"4,,N,26,",64.6,"4,,,N",,,,,,,,,,,,,,,,,,,,,,,,,,,,,,,,,,,,,,,,,,,,,,,,,,,,,,,,,,,,,,,,,,,,,,,,,,,,,,,,,,,,,,,,,,,,,,,,,,,,,,,,,,,,,,,,,,,,,,,,,,,,,,,,,,,,,,,,,,,,,,,,,,,,,,,,,,,,,,,,,,,,,,,,,,,,,,,,
228,US1TXWM0102,2011-06,30.509528,-97.616015,238.0,"ROUND ROCK 3.4 E, TX US",2.0,",N",1.0,",N",0.0,",N",0.0,"2,N",20110630.0,"+,2,N",20110622.0,",,N",0.0,"2,,N,30,+",15.7,",,N,22,",17.2,",,,N",0.0,"2,,,N",,,,,,,,,,,,,,,,,,,,,,,,,,,,,,,,,,,,,,,,,,,,,,,,,,,,,,,,,,,,,,,,,,,,,,,,,,,,,,,,,,,,,,,,,,,,,,,,,,,,,,,,,,,,,,,,,,,,,,,,,,,,,,,,,,,,,,,,,,,,,,,,,,,,,,,,,,,,,,,,,,,,,,,,,,,,,,
229,US1TXWM0105,2011-07,30.576719,-97.416455,178.9,"TAYLOR 0.5 NW, TX US",1.0,",N",1.0,",N",0.0,",N",0.0,"1,N",20110731.0,"+,1,N",20110716.0,",,N",0.0,"1,,N,31,+",11.9,",,N,16,",11.9,",,,N",0.0,"1,,,N",,,,,,,,,,,,,,,,,,,,,,,,,,,,,,,,,,,,,,,,,,,,,,,,,,,,,,,,,,,,,,,,,,,,,,,,,,,,,,,,,,,,,,,,,,,,,,,,,,,,,,,,,,,,,,,,,,,,,,,,,,,,,,,,,,,,,,,,,,,,,,,,,,,,,,,,,,,,,,,,,,,,,,,,,,,,,,
230,US1TXWM0106,2011-07,30.5025,-97.595,231.6,"ROUND ROCK 4.7 ESE, TX US",0.0,",N",0.0,",N",0.0,",N",0.0,",N",20110731.0,"+,,N",20110731.0,"+,,N",0.0,",,N,31,+",0.0,",,N,31,+",0.0,",,,N",0.0,",,,N",,,,,,,,,,,,,,,,,,,,,,,,,,,,,,,,,,,,,,,,,,,,,,,,,,,,,,,,,,,,,,,,,,,,,,,,,,,,,,,,,,,,,,,,,,,,,,,,,,,,,,,,,,,,,,,,,,,,,,,,,,,,,,,,,,,,,,,,,,,,,,,,,,,,,,,,,,,,,,,,,,,,,,,,,,,,,,
231,US1TXWM0109,2014-01,30.6152,-97.9871,370.9,"LIBERTY HILL 5.2 SW, TX US",3.0,",N",0.0,",N",0.0,",N",0.0,"3,N",20140131.0,"+,3,N",20140113.0,",,N",0.0,"3,,N,31,+",1.3,",,N,13,",3.1,",,,N",0.0,"3,,,N",,,,,,,,,,,,,,,,,,,,,,,,,,,,,,,,,,,,,,,,,,,,,,,,,,,,,,,,,,,,,,,,,,,,,,,,,,,,,,,,,,,,,,,,,,,,,,,,,,,,,,,,,,,,,,,,,,,,,,,,,,,,,,,,,,,,,,,,,,,,,,,,,,,,,,,,,,,,,,,,,,,,,,,,,,,,,,
232,US1TXWM0110,2012-01,30.690289,-97.856375,293.8,"LIBERTY HILL 4.3 ENE, TX US",6.0,"5,N",3.0,"5,N",1.0,"5,N",,,,,20120125.0,",5,N",,,34.0,"5,,N,25,",53.4,"5,,,N",,,,,,,,,,,,,,,,,,,,,,,,,,,,,,,,,,,,,,,,,,,,,,,,,,,,,,,,,,,,,,,,,,,,,,,,,,,,,,,,,,,,,,,,,,,,,,,,,,,,,,,,,,,,,,,,,,,,,,,,,,,,,,,,,,,,,,,,,,,,,,,,,,,,,,,,,,,,,,,,,,,,,,,,,,,,,,,,
233,US1TXWM0113,2012-05,30.832353,-97.677276,266.1,"JARRELL 4.4 W, TX US",6.0,"3,N",4.0,"3,N",1.0,"3,N",,,,,20120511.0,",3,N",,,35.3,"3,,N,11,",55.6,",a,,N",,,,,,,,,,,,,,,,,,,,,,,,,,,,,,,,,,,,,,,,,,,,,,,,,,,,,,,,,,,,,,,,,,,,,,,,,,,,,,,,,,,,,,,,,,,,,,,,,,,,,,,,,,,,,,,,,,,,,,,,,,,,,,,,,,,,,,,,,,,,,,,,,,,,,,,,,,,,,,,,,,,,,,,,,,,,,,,,
234,US1TXWM0115,2012-04,30.62157,-97.80627,271.9,"GEORGETOWN 7.4 WSW, TX US",3.0,"5,N",1.0,"5,N",0.0,"5,N",,,,,20120416.0,",5,N",,,3.8,"5,,N,16,",6.1,"5,,,N",,,,,,,,,,,,,,,,,,,,,,,,,,,,,,,,,,,,,,,,,,,,,,,,,,,,,,,,,,,,,,,,,,,,,,,,,,,,,,,,,,,,,,,,,,,,,,,,,,,,,,,,,,,,,,,,,,,,,,,,,,,,,,,,,,,,,,,,,,,,,,,,,,,,,,,,,,,,,,,,,,,,,,,,,,,,,,,,
235,US1TXWM0118,2012-05,30.492867,-97.770829,274.6,"BRUSHY CREEK 2.3 SW, TX US",,,,,,,,,,,,,,,,,116.0,"3,a,,N",,,,,,,,,,,,,,,,,,,,,,,,,,,,,,,,,,,,,,,,,,,,,,,,,,,,,,,,,,,,,,,,,,,,,,,,,,,,,,,,,,,,,,,,,,,,,,,,,,,,,,,,,,,,,,,,,,,,,,,,,,,,,,,,,,,,,,,,,,,,,,,,,,,,,,,,,,,,,,,,,,,,,,,,,,,,,,,,
236,US1TXWM0119,2012-05,30.7922821044922,-97.5161819458008,220.7,"BARTLETT 5.0 W, TX US",6.0,"1,N",5.0,"1,N",2.0,"1,N",,,,,20120511.0,",1,N",,,43.9,"1,,N,11,",88.6,"1,,,N",,,,,,,,,,,,,,,,,,,,,,,,,,,,,,,,,,,,,,,,,,,,,,,,,,,,,,,,,,,,,,,,,,,,,,,,,,,,,,,,,,,,,,,,,,,,,,,,,,,,,,,,,,,,,,,,,,,,,,,,,,,,,,,,,,,,,,,,,,,,,,,,,,,,,,,,,,,,,,,,,,,,,,,,,,,,,,,,
237,US1TXWM0122,2012-06,30.515413,-97.607016,227.7,"ROUND ROCK 3.9 E, TX US",1.0,",N",0.0,",N",0.0,",N",0.0,"1,N",20120630.0,"+,1,N",20120608.0,",,N",0.0,"1,,N,30,+",0.5,",,N,08,",0.5,",,,N",0.0,"1,,,N",,,,,,,,,,,,,,,,,,,,,,,,,,,,,,,,,,,,,,,,,,,,,,,,,,,,,,,,,,,,,,,,,,,,,,,,,,,,,,,,,,,,,,,,,,,,,,,,,,,,,,,,,,,,,,,,,,,,,,,,,,,,,,,,,,,,,,,,,,,,,,,,,,,,,,,,,,,,,,,,,,,,,,,,,,,,,,
238,US1TXWM0123,2012-07,30.5310020446777,-97.675910949707,232.0,"ROUND ROCK 1.0 NNW, TX US",10.0,"1,N",7.0,"1,N",5.0,"1,N",,,,,20120716.0,",1,N",,,61.5,"1,,N,16,",215.7,"1,,,N",,,,,,,,,,,,,,,,,,,,,,,,,,,,,,,,,,,,,,,,,,,,,,,,,,,,,,,,,,,,,,,,,,,,,,,,,,,,,,,,,,,,,,,,,,,,,,,,,,,,,,,,,,,,,,,,,,,,,,,,,,,,,,,,,,,,,,,,,,,,,,,,,,,,,,,,,,,,,,,,,,,,,,,,,,,,,,,,
239,US1TXWM0124,2012-05,30.663,-98.0008,359.7,"LIBERTY HILL 4.7 W, TX US",6.0,",N",6.0,",N",1.0,",N",,,,,20120511.0,",,N",,,48.5,",,N,11,",103.0,",,,N",,,,,,,,,,,,,,,,,,,,,,,,,,,,,,,,,,,,,,,,,,,,,,,,,,,,,,,,,,,,,,,,,,,,,,,,,,,,,,,,,,,,,,,,,,,,,,,,,,,,,,,,,,,,,,,,,,,,,,,,,,,,,,,,,,,,,,,,,,,,,,,,,,,,,,,,,,,,,,,,,,,,,,,,,,,,,,,,
240,US1TXWM0126,2012-11,30.585012,-97.416311,173.4,"TAYLOR 1.0 NNW, TX US",1.0,"3,N",1.0,"3,N",0.0,"3,N",0.0,"4,N",20121130.0,"+,4,N",20121127.0,",3,N",0.0,"4,,N,30,+",18.3,"3,,N,27,",18.3,"3,,,N",0.0,"4,,,N",,,,,,,,,,,,,,,,,,,,,,,,,,,,,,,,,,,,,,,,,,,,,,,,,,,,,,,,,,,,,,,,,,,,,,,,,,,,,,,,,,,,,,,,,,,,,,,,,,,,,,,,,,,,,,,,,,,,,,,,,,,,,,,,,,,,,,,,,,,,,,,,,,,,,,,,,,,,,,,,,,,,,,,,,,,,,,
241,US1TXWM0127,2012-06,30.492917,-97.843722,294.1,"CEDAR PARK 1.7 SSW, TX US",2.0,",N",2.0,",N",0.0,",N",0.0,"2,N",20120630.0,"+,2,N",20120621.0,",,N",0.0,"2,,N,30,+",11.7,",,N,21,",15.3,",,,N",0.0,"2,,,N",,,,,,,,,,,,,,,,,,,,,,,,,,,,,,,,,,,,,,,,,,,,,,,,,,,,,,,,,,,,,,,,,,,,,,,,,,,,,,,,,,,,,,,,,,,,,,,,,,,,,,,,,,,,,,,,,,,,,,,,,,,,,,,,,,,,,,,,,,,,,,,,,,,,,,,,,,,,,,,,,,,,,,,,,,,,,,
242,US1TXWM0128,2012-07,30.4914836883545,-97.7018356323242,235.0,"ROUND ROCK 2.5 SW, TX US",8.0,"3,N",6.0,"3,N",4.0,"3,N",,,,,20120716.0,",3,N",,,145.5,"3,,N,16,",337.9,"3,,,N",,,,,,,,,,,,,,,,,,,,,,,,,,,,,,,,,,,,,,,,,,,,,,,,,,,,,,,,,,,,,,,,,,,,,,,,,,,,,,,,,,,,,,,,,,,,,,,,,,,,,,,,,,,,,,,,,,,,,,,,,,,,,,,,,,,,,,,,,,,,,,,,,,,,,,,,,,,,,,,,,,,,,,,,,,,,,,,,
243,US1TXWM0129,2012-06,30.48163,-97.2485,175.3,"THRALL 7.9 SSE, TX US",4.0,",N",4.0,",N",1.0,",N",0.0,"5,N",20120630.0,"+,5,N",20120613.0,",,N",0.0,"5,,N,30,+",35.6,",,N,13,",47.0,",,,N",0.0,"5,,,N",,,,,,,,,,,,,,,,,,,,,,,,,,,,,,,,,,,,,,,,,,,,,,,,,,,,,,,,,,,,,,,,,,,,,,,,,,,,,,,,,,,,,,,,,,,,,,,,,,,,,,,,,,,,,,,,,,,,,,,,,,,,,,,,,,,,,,,,,,,,,,,,,,,,,,,,,,,,,,,,,,,,,,,,,,,,,,
244,US1TXWM0131,2012-10,30.538337,-97.547664,199.3,"HUTTO 0.6 SSW, TX US",6.0,",N",3.0,",N",0.0,",N",,,,,20121012.0,",,N",,,15.0,",,N,12,",34.5,",,,N",,,,,,,,,,,,,,,,,,,,,,,,,,,,,,,,,,,,,,,,,,,,,,,,,,,,,,,,,,,,,,,,,,,,,,,,,,,,,,,,,,,,,,,,,,,,,,,,,,,,,,,,,,,,,,,,,,,,,,,,,,,,,,,,,,,,,,,,,,,,,,,,,,,,,,,,,,,,,,,,,,,,,,,,,,,,,,,,
245,US1TXWM0135,2013-01,30.653002,-97.536597,202.7,"GEORGETOWN 8.9 E, TX US",8.0,",N",6.0,",N",1.0,",N",,,,,20130109.0,",,N",,,62.7,",,N,09,",114.0,",,,N",,,,,,,,,,,,,,,,,,,,,,,,,,,,,,,,,,,,,,,,,,,,,,,,,,,,,,,,,,,,,,,,,,,,,,,,,,,,,,,,,,,,,,,,,,,,,,,,,,,,,,,,,,,,,,,,,,,,,,,,,,,,,,,,,,,,,,,,,,,,,,,,,,,,,,,,,,,,,,,,,,,,,,,,,,,,,,,,
246,US1TXWM0141,2013-02,30.4921760559082,-97.7387237548828,271.0,"ROUND ROCK 4.3 WSW, TX US",6.0,",N",1.0,",N",0.0,",N",,,,,20130210.0,",,N",,,4.1,",,N,10,",8.3,",,,N",,,,,,,,,,,,,,,,,,,,,,,,,,,,,,,,,,,,,,,,,,,,,,,,,,,,,,,,,,,,,,,,,,,,,,,,,,,,,,,,,,,,,,,,,,,,,,,,,,,,,,,,,,,,,,,,,,,,,,,,,,,,,,,,,,,,,,,,,,,,,,,,,,,,,,,,,,,,,,,,,,,,,,,,,,,,,,,,
247,US1TXWM0142,2013-03,30.610203,-97.844589,278.0,"LEANDER 3.4 NNE, TX US",3.0,"1,N",3.0,"1,N",0.0,"1,N",0.0,"4,N",20130331.0,"+,4,N",20130310.0,",1,N",0.0,"4,,N,31,+",18.5,"1,,N,10,",27.7,"1,,,N",0.0,"4,,,N",,,,,,,,,,,,,,,,,,,,,,,,,,,,,,,,,,,,,,,,,,,,,,,,,,,,,,,,,,,,,,,,,,,,,,,,,,,,,,,,,,,,,,,,,,,,,,,,,,,,,,,,,,,,,,,,,,,,,,,,,,,,,,,,,,,,,,,,,,,,,,,,,,,,,,,,,,,,,,,,,,,,,,,,,,,,,,
248,US1TXWM0148,2013-05,30.5518321990967,-97.6398468017578,226.8,"ROUND ROCK 3.0 NE, TX US",9.0,",N",7.0,",N",0.0,",N",,,,,20130524.0,",,N",,,17.3,",,N,24,",55.9,",,,N",,,,,,,,,,,,,,,,,,,,,,,,,,,,,,,,,,,,,,,,,,,,,,,,,,,,,,,,,,,,,,,,,,,,,,,,,,,,,,,,,,,,,,,,,,,,,,,,,,,,,,,,,,,,,,,,,,,,,,,,,,,,,,,,,,,,,,,,,,,,,,,,,,,,,,,,,,,,,,,,,,,,,,,,,,,,,,,,
249,US1TXWM0156,2015-12,30.706116,-97.73386,257.6,"GEORGETOWN 4.9 NW, TX US",5.0,"3,N",3.0,"3,N",1.0,"3,N",,,,,20151213.0,",3,N",,,28.4,"3,,N,13,",58.4,"3,,,N",,,,,,,,,,,,,,,,,,,,,,,,,,,,,,,,,,,,,,,,,,,,,,,,,,,,,,,,,,,,,,,,,,,,,,,,,,,,,,,,,,,,,,,,,,,,,,,,,,,,,,,,,,,,,,,,,,,,,,,,,,,,,,,,,,,,,,,,,,,,,,,,,,,,,,,,,,,,,,,,,,,,,,,,,,,,,,,,
250,US1TXWM0158,2013-08,30.592601776123,-97.4223022460938,181.7,"TAYLOR 1.6 NNW, TX US",5.0,"4,N",3.0,"4,N",0.0,"4,N",,,,,20130828.0,",4,N",,,14.0,"4,,N,28,",28.7,"4,,,N",,,,,,,,,,,,,,,,,,,,,,,,,,,,,,,,,,,,,,,,,,,,,,,,,,,,,,,,,,,,,,,,,,,,,,,,,,,,,,,,,,,,,,,,,,,,,,,,,,,,,,,,,,,,,,,,,,,,,,,,,,,,,,,,,,,,,,,,,,,,,,,,,,,,,,,,,,,,,,,,,,,,,,,,,,,,,,,,
251,US1TXWM0159,2013-08,30.6548946,-97.9982413,362.7,"LIBERTY HILL 4.6 W, TX US",4.0,"1,N",2.0,"1,N",0.0,"1,N",0.0,"5,N",20130831.0,"+,5,N",20130811.0,",1,N",0.0,"5,,N,31,+",8.4,"1,,N,11,",14.1,"1,,,N",0.0,"5,,,N",,,,,,,,,,,,,,,,,,,,,,,,,,,,,,,,,,,,,,,,,,,,,,,,,,,,,,,,,,,,,,,,,,,,,,,,,,,,,,,,,,,,,,,,,,,,,,,,,,,,,,,,,,,,,,,,,,,,,,,,,,,,,,,,,,,,,,,,,,,,,,,,,,,,,,,,,,,,,,,,,,,,,,,,,,,,,,
252,US1TXWM0161,2013-08,30.5369,-97.4078,184.1,"TAYLOR 2.4 S, TX US",5.0,"5,N",2.0,"5,N",0.0,"5,N",,,,,20130828.0,",5,N",,,10.7,"5,,N,28,",18.8,"5,,,N",,,,,,,,,,,,,,,,,,,,,,,,,,,,,,,,,,,,,,,,,,,,,,,,,,,,,,,,,,,,,,,,,,,,,,,,,,,,,,,,,,,,,,,,,,,,,,,,,,,,,,,,,,,,,,,,,,,,,,,,,,,,,,,,,,,,,,,,,,,,,,,,,,,,,,,,,,,,,,,,,,,,,,,,,,,,,,,,
253,US1TXWM0162,2013-07,30.6825885772705,-97.922981262207,327.7,"LIBERTY HILL 1.2 N, TX US",8.0,",N",5.0,",N",2.0,",N",,,,,20130716.0,",,N",,,55.9,",,N,16,",119.7,",,,N",,,,,,,,,,,,,,,,,,,,,,,,,,,,,,,,,,,,,,,,,,,,,,,,,,,,,,,,,,,,,,,,,,,,,,,,,,,,,,,,,,,,,,,,,,,,,,,,,,,,,,,,,,,,,,,,,,,,,,,,,,,,,,,,,,,,,,,,,,,,,,,,,,,,,,,,,,,,,,,,,,,,,,,,,,,,,,,,
254,US1TXWM0163,2013-07,30.68008333,-97.71977778,268.8,"GEORGETOWN 3.0 NW, TX US",6.0,"1,N",5.0,"1,N",1.0,"1,N",,,,,20130716.0,",1,N",,,43.4,"1,,N,16,",128.2,"1,,,N",,,,,,,,,,,,,,,,,,,,,,,,,,,,,,,,,,,,,,,,,,,,,,,,,,,,,,,,,,,,,,,,,,,,,,,,,,,,,,,,,,,,,,,,,,,,,,,,,,,,,,,,,,,,,,,,,,,,,,,,,,,,,,,,,,,,,,,,,,,,,,,,,,,,,,,,,,,,,,,,,,,,,,,,,,,,,,,,
255,US1TXWM0164,2013-07,30.64622222,-97.66288889,213.4,"GEORGETOWN 1.4 E, TX US",6.0,"3,N",5.0,"3,N",3.0,"3,N",,,,,20130716.0,",3,N",,,45.7,"3,,N,16,",145.9,"3,,,N",,,,,,,,,,,,,,,,,,,,,,,,,,,,,,,,,,,,,,,,,,,,,,,,,,,,,,,,,,,,,,,,,,,,,,,,,,,,,,,,,,,,,,,,,,,,,,,,,,,,,,,,,,,,,,,,,,,,,,,,,,,,,,,,,,,,,,,,,,,,,,,,,,,,,,,,,,,,,,,,,,,,,,,,,,,,,,,,
256,US1TXWM0165,2013-07,30.61934,-97.6816,229.2,"GEORGETOWN 2.0 S, TX US",6.0,"3,N",6.0,"3,N",1.0,"3,N",,,,,20130716.0,",3,N",,,35.1,"3,,N,16,",122.4,"3,,,N",,,,,,,,,,,,,,,,,,,,,,,,,,,,,,,,,,,,,,,,,,,,,,,,,,,,,,,,,,,,,,,,,,,,,,,,,,,,,,,,,,,,,,,,,,,,,,,,,,,,,,,,,,,,,,,,,,,,,,,,,,,,,,,,,,,,,,,,,,,,,,,,,,,,,,,,,,,,,,,,,,,,,,,,,,,,,,,,
257,US1TXWM0166,2013-10,30.5277042388916,-97.8677215576172,325.5,"CEDAR PARK 2.4 WNW, TX US",13.0,"2,N",8.0,"2,N",2.0,"2,N",,,,,20131013.0,",2,N",,,61.0,"2,,N,13,",180.9,"2,,,N",,,,,,,,,,,,,,,,,,,,,,,,,,,,,,,,,,,,,,,,,,,,,,,,,,,,,,,,,,,,,,,,,,,,,,,,,,,,,,,,,,,,,,,,,,,,,,,,,,,,,,,,,,,,,,,,,,,,,,,,,,,,,,,,,,,,,,,,,,,,,,,,,,,,,,,,,,,,,,,,,,,,,,,,,,,,,,,,
258,US1TXWM0168,2013-09,30.49535,-97.83289,,"CEDAR PARK 1.3 S, TX US",11.0,",N",5.0,",N",2.0,",N",,,,,20130929.0,",,N",,,37.6,",,N,29,",86.8,",,,N",,,,,,,,,,,,,,,,,,,,,,,,,,,,,,,,,,,,,,,,,,,,,,,,,,,,,,,,,,,,,,,,,,,,,,,,,,,,,,,,,,,,,,,,,,,,,,,,,,,,,,,,,,,,,,,,,,,,,,,,,,,,,,,,,,,,,,,,,,,,,,,,,,,,,,,,,,,,,,,,,,,,,,,,,,,,,,,,
259,US1TXWM0170,2013-09,30.533156,-97.560646,194.5,"HUTTO 1.4 SW, TX US",9.0,",N",5.0,",N",2.0,",N",,,,,20130921.0,",,N",,,54.6,",,N,21,",136.3,",,,N",,,,,,,,,,,,,,,,,,,,,,,,,,,,,,,,,,,,,,,,,,,,,,,,,,,,,,,,,,,,,,,,,,,,,,,,,,,,,,,,,,,,,,,,,,,,,,,,,,,,,,,,,,,,,,,,,,,,,,,,,,,,,,,,,,,,,,,,,,,,,,,,,,,,,,,,,,,,,,,,,,,,,,,,,,,,,,,,
260,US1TXWM0171,2013-10,30.6306754052639,-97.8068549931049,301.4,"GEORGETOWN 7.3 W, TX US",10.0,",N",6.0,",N",1.0,",N",,,,,20131031.0,",,N",,,38.1,",,N,31,",109.2,",,,N",,,,,,,,,,,,,,,,,,,,,,,,,,,,,,,,,,,,,,,,,,,,,,,,,,,,,,,,,,,,,,,,,,,,,,,,,,,,,,,,,,,,,,,,,,,,,,,,,,,,,,,,,,,,,,,,,,,,,,,,,,,,,,,,,,,,,,,,,,,,,,,,,,,,,,,,,,,,,,,,,,,,,,,,,,,,,,,,
261,US1TXWM0172,2013-11,30.5342617034912,-97.5478668212891,196.6,"HUTTO 0.9 SSW, TX US",,,,,,,,,,,,,,,,,142.3,"1,a,,N",,,,,,,,,,,,,,,,,,,,,,,,,,,,,,,,,,,,,,,,,,,,,,,,,,,,,,,,,,,,,,,,,,,,,,,,,,,,,,,,,,,,,,,,,,,,,,,,,,,,,,,,,,,,,,,,,,,,,,,,,,,,,,,,,,,,,,,,,,,,,,,,,,,,,,,,,,,,,,,,,,,,,,,,,,,,,,,,
262,US1TXWM0174,2018-07,30.459433,-97.819685,306.0,"ANDERSON MILL 0.9 WNW, TX US",5.0,"5,N",5.0,"5,N",2.0,"5,N",,,,,20180705.0,",5,N",,,60.2,"5,,N,05,",132.4,"5,,,N",,,,,,,,,,,,,,,,,,,,,,,,,,,,,,,,,,,,,,,,,,,,,,,,,,,,,,,,,,,,,,,,,,,,,,,,,,,,,,,,,,,,,,,,,,,,,,,,,,,,,,,,,,,,,,,,,,,,,,,,,,,,,,,,,,,,,,,,,,,,,,,,,,,,,,,,,,,,,,,,,,,,,,,,,,,,,,,,
263,US1TXWM0175,2014-03,30.723088,-97.75712,279.8,"GEORGETOWN 6.7 NW, TX US",8.0,"1,N",4.0,"1,N",0.0,"1,N",,,,,20140309.0,",1,N",,,13.5,"1,,N,09,",34.0,"1,,,N",,,,,,,,,,,,,,,,,,,,,,,,,,,,,,,,,,,,,,,,,,,,,,,,,,,,,,,,,,,,,,,,,,,,,,,,,,,,,,,,,,,,,,,,,,,,,,,,,,,,,,,,,,,,,,,,,,,,,,,,,,,,,,,,,,,,,,,,,,,,,,,,,,,,,,,,,,,,,,,,,,,,,,,,,,,,,,,,
264,US1TXWM0176,2014-03,30.728648,-97.727669,255.1,"GEORGETOWN 6.1 NNW, TX US",7.0,"3,N",2.0,"3,N",0.0,"3,N",,,,,20140309.0,",3,N",,,15.2,"3,,N,09,",26.4,"3,,,N",,,,,,,,,,,,,,,,,,,,,,,,,,,,,,,,,,,,,,,,,,,,,,,,,,,,,,,,,,,,,,,,,,,,,,,,,,,,,,,,,,,,,,,,,,,,,,,,,,,,,,,,,,,,,,,,,,,,,,,,,,,,,,,,,,,,,,,,,,,,,,,,,,,,,,,,,,,,,,,,,,,,,,,,,,,,,,,,
265,US1TXWM0177,2018-09,30.497898,-97.847734,305.4,"CEDAR PARK 1.5 SW, TX US",,,,,,,,,,,,,,,,,206.6,"1,a,,N",,,,,,,,,,,,,,,,,,,,,,,,,,,,,,,,,,,,,,,,,,,,,,,,,,,,,,,,,,,,,,,,,,,,,,,,,,,,,,,,,,,,,,,,,,,,,,,,,,,,,,,,,,,,,,,,,,,,,,,,,,,,,,,,,,,,,,,,,,,,,,,,,,,,,,,,,,,,,,,,,,,,,,,,,,,,,,,,
266,US1TXWM0178,2014-04,30.51941,-97.61182,225.2,"ROUND ROCK 3.6 E, TX US",6.0,"4,N",3.0,"4,N",0.0,"4,N",,,,,20140415.0,",4,N",,,10.2,"4,,N,15,",20.4,"4,,,N",,,,,,,,,,,,,,,,,,,,,,,,,,,,,,,,,,,,,,,,,,,,,,,,,,,,,,,,,,,,,,,,,,,,,,,,,,,,,,,,,,,,,,,,,,,,,,,,,,,,,,,,,,,,,,,,,,,,,,,,,,,,,,,,,,,,,,,,,,,,,,,,,,,,,,,,,,,,,,,,,,,,,,,,,,,,,,,,
267,US1TXWM0183,2014-04,30.723719,-97.75248,277.4,"GEORGETOWN 6.6 NW, TX US",4.0,",N",3.0,",N",1.0,",N",0.0,"4,N",20140430.0,"+,4,N",20140407.0,",,N",0.0,"4,,N,30,+",39.6,",,N,07,",51.3,",,,N",0.0,"4,,,N",,,,,,,,,,,,,,,,,,,,,,,,,,,,,,,,,,,,,,,,,,,,,,,,,,,,,,,,,,,,,,,,,,,,,,,,,,,,,,,,,,,,,,,,,,,,,,,,,,,,,,,,,,,,,,,,,,,,,,,,,,,,,,,,,,,,,,,,,,,,,,,,,,,,,,,,,,,,,,,,,,,,,,,,,,,,,,
268,US1TXWM0185,2014-04,30.71945,-97.73905,255.4,"GEORGETOWN 5.9 NNW, TX US",5.0,"5,N",2.0,"5,N",0.0,"5,N",,,,,20140407.0,",5,N",,,25.1,"5,,N,07,",33.5,"5,,,N",,,,,,,,,,,,,,,,,,,,,,,,,,,,,,,,,,,,,,,,,,,,,,,,,,,,,,,,,,,,,,,,,,,,,,,,,,,,,,,,,,,,,,,,,,,,,,,,,,,,,,,,,,,,,,,,,,,,,,,,,,,,,,,,,,,,,,,,,,,,,,,,,,,,,,,,,,,,,,,,,,,,,,,,,,,,,,,,
269,US1TXWM0191,2020-06,30.5120315551758,-97.2297821044922,153.3,"THRALL 6.7 SE, TX US",1.0,",N",1.0,",N",0.0,",N",0.0,"1,N",20200630.0,"+,1,N",20200624.0,",,N",0.0,"1,,N,30,+",10.7,",,N,24,",10.7,",,,N",0.0,"1,,,N",,,,,,,,,,,,,,,,,,,,,,,,,,,,,,,,,,,,,,,,,,,,,,,,,,,,,,,,,,,,,,,,,,,,,,,,,,,,,,,,,,,,,,,,,,,,,,,,,,,,,,,,,,,,,,,,,,,,,,,,,,,,,,,,,,,,,,,,,,,,,,,,,,,,,,,,,,,,,,,,,,,,,,,,,,,,,,
270,US1TXWM0192,2014-06,30.463009,-97.222829,163.1,"THORNDALE 10.5 S, TX US",7.0,"4,N",4.0,"4,N",0.0,"4,N",,,,,20140628.0,",4,N",,,5.1,"4,,N,28,",19.0,"4,,,N",,,,,,,,,,,,,,,,,,,,,,,,,,,,,,,,,,,,,,,,,,,,,,,,,,,,,,,,,,,,,,,,,,,,,,,,,,,,,,,,,,,,,,,,,,,,,,,,,,,,,,,,,,,,,,,,,,,,,,,,,,,,,,,,,,,,,,,,,,,,,,,,,,,,,,,,,,,,,,,,,,,,,,,,,,,,,,,,
271,US1TXWM0195,2014-07,30.508275,-97.697191,228.0,"ROUND ROCK 1.6 WSW, TX US",4.0,",N",4.0,",N",1.0,",N",0.0,"4,N",20140731.0,"+,4,N",20140718.0,",,N",0.0,"4,,N,31,+",53.8,",,N,18,",68.4,",,,N",0.0,"4,,,N",,,,,,,,,,,,,,,,,,,,,,,,,,,,,,,,,,,,,,,,,,,,,,,,,,,,,,,,,,,,,,,,,,,,,,,,,,,,,,,,,,,,,,,,,,,,,,,,,,,,,,,,,,,,,,,,,,,,,,,,,,,,,,,,,,,,,,,,,,,,,,,,,,,,,,,,,,,,,,,,,,,,,,,,,,,,,,
272,US1TXWM0200,2014-10,30.516389,-97.863889,330.4,"CEDAR PARK 2.0 W, TX US",5.0,"2,N",4.0,"2,N",0.0,"2,N",,,,,20141011.0,",2,N",,,21.6,"2,,N,11,",47.8,"2,,,N",,,,,,,,,,,,,,,,,,,,,,,,,,,,,,,,,,,,,,,,,,,,,,,,,,,,,,,,,,,,,,,,,,,,,,,,,,,,,,,,,,,,,,,,,,,,,,,,,,,,,,,,,,,,,,,,,,,,,,,,,,,,,,,,,,,,,,,,,,,,,,,,,,,,,,,,,,,,,,,,,,,,,,,,,,,,,,,,
273,US1TXWM0201,2014-11,30.706909,-97.762856,300.8,"GEORGETOWN 6.1 NW, TX US",5.0,"5,N",4.0,"5,N",2.0,"5,N",,,,,20141123.0,",5,N",,,53.3,"5,,N,23,",116.8,"5,,,N",,,,,,,,,,,,,,,,,,,,,,,,,,,,,,,,,,,,,,,,,,,,,,,,,,,,,,,,,,,,,,,,,,,,,,,,,,,,,,,,,,,,,,,,,,,,,,,,,,,,,,,,,,,,,,,,,,,,,,,,,,,,,,,,,,,,,,,,,,,,,,,,,,,,,,,,,,,,,,,,,,,,,,,,,,,,,,,,
274,US1TXWM0202,2014-11,30.630938,-97.671516,228.9,"GEORGETOWN 1.4 SE, TX US",7.0,"3,N",4.0,"3,N",3.0,"3,N",,,,,20141123.0,",3,N",,,52.3,"3,,N,23,",129.3,"3,,,N",,,,,,,,,,,,,,,,,,,,,,,,,,,,,,,,,,,,,,,,,,,,,,,,,,,,,,,,,,,,,,,,,,,,,,,,,,,,,,,,,,,,,,,,,,,,,,,,,,,,,,,,,,,,,,,,,,,,,,,,,,,,,,,,,,,,,,,,,,,,,,,,,,,,,,,,,,,,,,,,,,,,,,,,,,,,,,,,
275,US1TXWM0203,2015-01,30.715344,-97.728512,243.8,"GEORGETOWN 5.3 NNW, TX US",12.0,"1,N",7.0,"1,N",1.0,"1,N",,,,,20150122.0,",1,N",,,27.2,"1,,N,22,",102.4,"1,,,N",,,,,,,,,,,,,,,,,,,,,,,,,,,,,,,,,,,,,,,,,,,,,,,,,,,,,,,,,,,,,,,,,,,,,,,,,,,,,,,,,,,,,,,,,,,,,,,,,,,,,,,,,,,,,,,,,,,,,,,,,,,,,,,,,,,,,,,,,,,,,,,,,,,,,,,,,,,,,,,,,,,,,,,,,,,,,,,,
276,US1TXWM0206,2015-01,30.477854,-97.846282,301.4,"CEDAR PARK 2.7 SSW, TX US",9.0,"1,N",7.0,"1,N",1.0,"1,N",,,,,20150122.0,",1,N",,,30.7,"1,,N,22,",108.9,"1,,,N",,,,,,,,,,,,,,,,,,,,,,,,,,,,,,,,,,,,,,,,,,,,,,,,,,,,,,,,,,,,,,,,,,,,,,,,,,,,,,,,,,,,,,,,,,,,,,,,,,,,,,,,,,,,,,,,,,,,,,,,,,,,,,,,,,,,,,,,,,,,,,,,,,,,,,,,,,,,,,,,,,,,,,,,,,,,,,,,
277,US1TXWM0208,2015-04,30.517925,-97.594367,213.1,"ROUND ROCK 4.6 E, TX US",11.0,"1,N",7.0,"1,N",0.0,"1,N",,,,,20150424.0,",1,N",,,13.2,"1,,N,24,",53.4,"1,,,N",,,,,,,,,,,,,,,,,,,,,,,,,,,,,,,,,,,,,,,,,,,,,,,,,,,,,,,,,,,,,,,,,,,,,,,,,,,,,,,,,,,,,,,,,,,,,,,,,,,,,,,,,,,,,,,,,,,,,,,,,,,,,,,,,,,,,,,,,,,,,,,,,,,,,,,,,,,,,,,,,,,,,,,,,,,,,,,,
278,US1TXWM0209,2017-01,30.708026,-97.732582,251.8,"GEORGETOWN 5.0 NNW, TX US",4.0,",N",3.0,",N",1.0,",N",0.0,"4,N",20170131.0,"+,4,N",20170118.0,",,N",0.0,"4,,N,31,+",32.3,",,N,18,",55.9,",,,N",0.0,"4,,,N",,,,,,,,,,,,,,,,,,,,,,,,,,,,,,,,,,,,,,,,,,,,,,,,,,,,,,,,,,,,,,,,,,,,,,,,,,,,,,,,,,,,,,,,,,,,,,,,,,,,,,,,,,,,,,,,,,,,,,,,,,,,,,,,,,,,,,,,,,,,,,,,,,,,,,,,,,,,,,,,,,,,,,,,,,,,,,
279,US1TXWM0212,2015-12,30.723947,-97.758873,271.6,"GEORGETOWN 6.8 NW, TX US",4.0,",N",3.0,",N",1.0,",N",0.0,"4,N",20151231.0,"+,4,N",20151213.0,",,N",0.0,"4,,N,31,+",27.7,",,N,13,",58.2,",,,N",0.0,"4,,,N",,,,,,,,,,,,,,,,,,,,,,,,,,,,,,,,,,,,,,,,,,,,,,,,,,,,,,,,,,,,,,,,,,,,,,,,,,,,,,,,,,,,,,,,,,,,,,,,,,,,,,,,,,,,,,,,,,,,,,,,,,,,,,,,,,,,,,,,,,,,,,,,,,,,,,,,,,,,,,,,,,,,,,,,,,,,,,
