,Continent,Country,Region Lv1,lat,lng,Address
0,Africa,Algeria,Algiers,36.753768,3.0587561,"Algiers [El Djazaïr], Algeria"
1,Africa,Algeria,Béjaïa,36.7514502,5.0557713,"Béjaïa, Algeria"
2,Africa,Algeria,Chlef Province,36.1693515,1.2891036,"Chlef Province, Algeria"
3,Africa,Algeria,Mascara,35.4020988,0.1400257,"Mascara, Algeria"
4,Africa,Algeria,Médéa,36.2636153,2.7586773,"Médéa, Algeria"
5,Africa,Algeria,Tlemcen,34.8828864,-1.3166815,"Tlemcen, Algeria"
6,Africa,Algeria,Zaccar,34.4306072,3.3279265,"Zaccar, Algeria"
7,Africa,Algeria,Dahra,36.2557678,0.8501654,"Dahra, Algeria"
8,Africa,Cape Verde,Chã das Caldeiras,14.9675732,-24.3745152,"Chã das Caldeiras, Cabo Verde"
9,Africa,Morocco,Atlas Mountains,31.791702,-7.092619999999999,Morocco
10,Africa,Morocco,Benslimane,33.6189698,-7.1305536,"Ben Slimane, Morocco"
11,Africa,Morocco,Meknès,33.8730164,-5.5407299,"Meknes, Morocco"
12,Africa,South Africa,Breede River Valley,-33.7500045,19.5004613,"Breede River Valley, South Africa"
13,Africa,South Africa,Constantia,-34.0257608,18.4230789,"Constantia, Cape Town, South Africa"
14,Africa,South Africa,Durbanville,-33.8275335,18.6526846,"Durbanville, Cape Town, South Africa"
15,Africa,South Africa,Elgin,-34.1564767,19.0151567,"Elgin Valley, Grabouw, 7160, South Africa"
16,Africa,South Africa,Elim,-34.583333,19.75,"Elim, South Africa"
17,Africa,South Africa,Franschhoek,-33.9127211,19.1212795,"Franschhoek, 7690, South Africa"
18,Africa,South Africa,Little Karoo,-33.75,21.0,"Little Karoo, South Africa"
19,Africa,South Africa,Orange River Valley,-29.36576824100622,22.78982568778247,Orange River
20,Africa,South Africa,Paarl,-33.7311297,18.9628342,"Paarl, South Africa"
21,Africa,South Africa,Robertson,-33.8146946,19.897881,"Robertson, 6705, South Africa"
22,Africa,South Africa,Stellenbosch,-33.9322743,18.858746,"Stellenbosch, South Africa"
23,Africa,South Africa,Swartland,-33.3306832,18.7125791,"Swartland Local Municipality, South Africa"
24,Africa,South Africa,Tulbagh,-33.2827827,19.1390309,"Tulbagh, 6820, South Africa"
25,Africa,Tunisia,Arianah,36.907169,10.1255164,"Ariana Governorate, Tunisia"
26,Africa,Tunisia,Nabul,36.4512893,10.7356634,"Nabeul‎, Tunisia"
27,Africa,Tunisia,Sousse,35.8245029,10.634584,"Sousse, Tunisia"
28,Americas,Argentina,Buenos Aires Province,-37.2017285,-59.84106969999999,"Buenos Aires Province, Argentina"
29,Americas,Argentina,Catamarca Province,-27.0763912,-66.9988011,"Catamarca Province, Argentina"
30,Americas,Argentina,La Rioja Province,-29.9001725,-66.9988011,"La Rioja Province, Argentina"
31,Americas,Argentina,Mendoza Province,-34.5869034,-68.14314139999999,"Mendoza Province, Argentina"
32,Americas,Argentina,Neuquén Province,-38.8233843,-69.66911859999999,"Neuquén Province, Argentina"
33,Americas,Argentina,Río Negro Province,-40.7344343,-66.6176455,"Río Negro Province, Argentina"
34,Americas,Argentina,Salta Province,-25.2529539,-64.7162415,"Salta Province, Argentina"
35,Americas,Argentina,San Juan Province,-30.8724587,-68.52471489999999,"San Juan Province, Argentina"
36,Americas,Bolivia,Tarija Department,-21.5831595,-63.95861110000001,"Tarija Department, Bolivia"
37,Americas,Brazil,Bahia,-11.4098737,-41.2808577,"State of Bahia, Brazil"
40,Americas,Brazil,Mato Grosso,-12.6818712,-56.921099,"State of Mato Grosso, Brazil"
41,Americas,Brazil,Minas Gerais,-17.930178,-43.7908453,"State of Minas Gerais, Brazil"
45,Americas,Brazil,Paraná,-25.2520888,-52.0215415,"State of Paraná, Brazil"
49,Americas,Brazil,Pernambuco,-8.8137173,-36.954107,"State of Pernambuco, Brazil"
52,Americas,Brazil,Rio Grande do Sul,-29.3646459,-51.6657692,"State of Rio Grande do Sul, Brazil"
59,Americas,Brazil,Santa Catarina,-26.928572,-49.36531489999999,"State of Santa Catarina, Brazil"
62,Americas,Brazil,São Paulo,-23.5557714,-46.6395571,"São Paulo, State of São Paulo, Brazil"
64,Americas,Canada,British Columbia,53.7266683,-127.6476206,"British Columbia, Canada"
70,Americas,Canada,Nova Scotia,45.07784729999999,-63.5466822,"Nova Scotia, Canada"
71,Americas,Canada,Ontario,51.253775,-85.3232139,"Ontario, Canada"
75,Americas,Canada,Quebec,46.8130816,-71.20745959999999,"Québec City, QC, Canada"
76,Americas,Colombia,Villa de Leyva,5.636499,-73.527058,"Villa de Leyva, Boyaca, Colombia"
77,Americas,Colombia,Valle del Cauca,3.8008893,-76.64127119999999,"Valle del Cauca, Colombia"
78,Americas,Costa Rica,Valle Central,9.748916999999999,-83.753428,Costa Rica
80,Americas,Costa Rica,Dota,9.6029464,-83.91089680000002,"San José Province, Dota, Costa Rica"
81,Americas,Chile,Aconcagua,-35.675147,-71.542969,Chile
83,Americas,Chile,Atacama,-23.8634189,-69.1328491,"Atacama Desert, Antofagasta, Chile"
85,Americas,Chile,Central Valley,-35.675147,-71.542969,Chile
89,Americas,Chile,Coquimbo,-29.9590009,-71.3389183,"Coquimbo, Chile"
92,Americas,Chile,Pica,-20.489483,-69.330511,"1170065 Pica, Tarapacá, Chile"
93,Americas,Chile,Southern Chile,-35.675147,-71.542969,Chile
97,Americas,Mexico,Aguascalientes,21.8852562,-102.2915677,"Aguascalientes, Mexico"
99,Americas,Mexico,Baja California,30.8406338,-115.2837585,"Baja California, Mexico"
104,Americas,Mexico,Coahuila / Durango,27.058676,-101.7068294,"Coahuila, Mexico"
111,Americas,Mexico,Hidalgo,20.0910963,-98.7623874,"Hidalgo, Mexico"
112,Americas,Mexico,Nuevo León,25.592172,-99.99619469999999,"Nuevo Leon, Mexico"
113,Americas,Mexico,Querétaro,20.5887932,-100.3898881,"Santiago de Querétaro, Qro., Mexico"
114,Americas,Mexico,Sonora,29.2972247,-110.3308814,"Sonora, Mexico"
116,Americas,Mexico,Zacatecas,22.7727913,-102.5765714,"Zacatecas, Mexico"
117,Americas,Peru,Arequipa region valleys,-16.1570087,-72.331113,"Arequipa, Peru"
119,Americas,Peru,Ica Region,-14.3942637,-75.52766989999999,"Ica, Peru"
123,Americas,United States,Arizona,34.0489281,-111.0937311,"Arizona, USA"
124,Americas,United States,California,36.778261,-119.4179324,"California, USA"
133,Americas,United States,Colorado,39.5500507,-105.7820674,"Colorado, USA"
134,Americas,United States,Idaho,44.0682019,-114.7420408,"Idaho, USA"
135,Americas,United States,Michigan,44.3148443,-85.60236429999999,"Michigan, USA"
136,Americas,United States,Missouri,37.9642529,-91.8318334,"Missouri, USA"
137,Americas,United States,New Jersey,40.0583238,-74.4056612,"New Jersey, USA"
138,Americas,United States,New Mexico,34.9727305,-105.0323635,"New Mexico, USA"
139,Americas,United States,New York,40.7127753,-74.0059728,"New York, NY, USA"
142,Americas,United States,Oregon,43.8041334,-120.5542012,"Oregon, USA"
143,Americas,United States,Pennsylvania,41.2033216,-77.1945247,"Pennsylvania, USA"
144,Americas,United States,Texas,31.9685988,-99.9018131,"Texas, USA"
147,Americas,United States,Virginia,37.4315734,-78.6568942,"Virginia, USA"
148,Americas,United States,Washington,47.7510741,-120.7401386,"Washington, USA"
149,Americas,Uruguay,Montevideo,-34.9055016,-56.1851147,"Montevideo, Montevideo Department, Uruguay"
150,Americas,Uruguay,Canelones,-34.5246844,-56.28121040000001,"90000 Canelones, Canelones Department, Uruguay"
151,Americas,Uruguay,Maldonado,-34.8979489,-54.9500451,"20000 Maldonado, Maldonado Department, Uruguay"
153,Americas,Uruguay,Colonia,-34.1294678,-57.66051840000001,"Colonia Department, Uruguay"
154,Americas,Uruguay,San José,-34.3391397,-56.7146152,"80000 San José de Mayo, San José Department, Uruguay"
155,Americas,Venezuela,Lara State,10.1537842,-69.8597406,"Lara, Venezuela"
156,Europe,Albania,Berat,40.7086377,19.9437314,"Berat, Albania"
157,Europe,Albania,Korça,40.6140785,20.7778071,"Korçë, Albania"
158,Europe,Albania,Leskovik,40.152365,20.6005039,"Leskovik, Albania"
159,Europe,Albania,Lezhë,41.78607299999999,19.6460758,"Lezhë District, Albania"
160,Europe,Albania,Përmet,40.2361837,20.3517334,"Përmet, Albania"
161,Europe,Albania,Shkoder,42.0692985,19.5032559,"Shkodër, Albania"
162,Europe,Albania,Tirana County,41.24275979999999,19.8067916,"Tirana County, Albania"
163,Europe,Austria,Burgenland,47.15371649999999,16.2688797,"Burgenland, Austria"
164,Europe,Austria,Kamptal,48.51027917616121,15.4535824483288,"Kamp, Austria"
165,Europe,Austria,Kremstal,47.9162821,14.1078494,"Kremstal, 4553 Schlierbach, Austria"
166,Europe,Austria,Wachau,48.3896089,15.4748897,"Wachau, 3602, Austria"
167,Europe,Austria,Wagram,48.299052,16.5640125,"Deutsch-Wagram, Austria"
168,Europe,Austria,Weinviertel,47.516231,14.550072,Austria
169,Europe,Austria,Southern Styria,47.2649012,14.8939302,"Styria, Austria"
170,Europe,Austria,Vienna,48.20806959999999,16.3713095,"Vienna, Austria"
171,Europe,Belgium,Côtes de Sambre et Meuse,49.94173088563552,5.416739278041011,Meuse
172,Europe,Belgium,Hagelandse wijn,50.9481009,4.7555331,"Kerkstraat 16, 3111 Rotselaar, Belgium"
173,Europe,Belgium, Limburg,50.9738973,5.3419677,"Limburg, Belgium"
174,Europe,Belgium,Heuvelland,50.7825384,2.8310063,"Heuvelland, Belgium"
175,Europe,Bosnia and Herzegovina,_apljina,43.11182669999999,17.7054838,"Čapljina, Bosnia and Herzegovina"
176,Europe,Bosnia and Herzegovina,_itluk,43.915886,17.679076,Bosnia and Herzegovina
177,Europe,Bosnia and Herzegovina,Ljubu_ki,43.915886,17.679076,Bosnia and Herzegovina
178,Europe,Bosnia and Herzegovina,Me_ugorje,43.200913,17.6629672,"Međugorje, Bosnia and Herzegovina"
179,Europe,Bosnia and Herzegovina,Mostar,43.34377480000001,17.8077578,"88000 Mostar, Bosnia and Herzegovina"
180,Europe,Bosnia and Herzegovina,Stolac,43.08515149999999,17.9592754,"Stolac, Bosnia and Herzegovina"
181,Europe,Bosnia and Herzegovina,Trebinje,42.7081585,18.3502638,"Trebinje, Bosnia and Herzegovina"
182,Europe,Bulgaria,Black Sea region,42.733883,25.48583,Bulgaria
183,Europe,Bulgaria,Danubian Plain,43.2500601,25.3337054,"Danubian Plain (Bulgaria), 5200, Bulgaria"
184,Europe,Bulgaria,Rose Valley,42.733883,25.48583,Bulgaria
185,Europe,Bulgaria,Thrace,42.1368728,24.7914628,"Thrace, Plovdiv, Bulgaria"
186,Europe,Bulgaria,Valley of the Struma River,41.71042934766407,23.26300673367543,Struma
193,Europe,Croatia,Littoral Croatia,45.1,15.2,Croatia
198,Europe,Cyprus,Commandaria,35.126413,33.429859,Cyprus
199,Europe,Cyprus,Laona – Akamas,35.05,32.3,"Akamas, 8701, Cyprus"
200,Europe,Cyprus,Vouni Panagias – Ambelitis,34.8230959,32.83388360000001,"Vouni 4772, Cyprus"
201,Europe,Cyprus,Krasochoria Lemesou,34.6786322,33.0413055,"Limassol, Cyprus"
202,Europe,Cyprus,Pitsilia,34.659093,33.0033804,"Franklin Roosevelt 258, Limassol 3046, Cyprus"
203,Europe,Cyprus,Diarizos Valley,34.78992733440332,32.65031119600666,"Dhiarizos, Cyprus"
204,Europe,Czech Republic,Moravia,49.1950982,16.6067304,"Moravia, 602 00 Brno-Brno-střed, Czechia"
208,Europe,Czech Republic,Bohemia,49.81749199999999,15.472962,Czechia
210,Europe,Czech Republic,Prague,50.0755381,14.4378005,"Prague, Czechia"
215,Europe,France,Alsace,48.3181795,7.441624099999999,"Alsace, France"
216,Europe,France,Bordeaux,44.8416106,-0.5810938000000001,"Bordeaux, France"
230,Europe,France,Bourgogne,47.0525047,4.3837215,"Burgundy, France"
249,Europe,France,Champagne – Champagne,46.227638,2.213749,France
250,Europe,France,Corsica,42.0396042,9.012892599999999,"Corsica, France"
257,Europe,France,Jura – Jura wine,46.76247499999999,5.6729159,"Jura, France"
258,Europe,France,Languedoc-Roussillon,43.5912356,3.2583626,"Languedoc-Roussillon, France"
268,Europe,France,Loire Valley ,47.5532402,1.0105289,"Loire Valley, France"
277,Europe,France,Rhône,45.7351456,4.6108043,"Rhône, France"
291,Europe,France,Savoy,46.227638,2.213749,France
292,Europe,Georgia,Abkhazia,42.9737816,41.4421799,Abkhazia
293,Europe,Georgia,Kakheti,41.6481602,45.6905554,"Kakheti, Georgia"
294,Europe,Georgia,Kartli,41.7215047,44.7743175,"Kartli, Georgia"
295,Europe,Georgia,Imereti,42.230108,42.9008665,"Imereti, Georgia"
296,Europe,Georgia,Racha-Lechkhumi,42.67188729999999,43.0562836,"Racha-Lechkhumi and Lower Svaneti, Georgia"
297,Europe,Georgia,Kvemo Svaneti,42.67188729999999,43.0562836,"Racha-Lechkhumi and Lower Svaneti, Georgia"
298,Europe,Germany,Ahr,50.45972044378019,6.965758824165669,"Ahr, 53, Germany"
299,Europe,Germany,Baden,48.6616037,9.3501336,"Baden-Württemberg, Germany"
300,Europe,Germany,Franconia,51.165691,10.451526,Germany
301,Europe,Germany,Hessische Bergstraße,49.6487606,8.6384116,"Bergstraße, Germany"
302,Europe,Germany,Mittelrhein,51.165691,10.451526,Germany
303,Europe,Germany,Mosel,49.11696795840684,6.739917320227059,Moselle
304,Europe,Germany,Nahe,53.7936388,10.1356739,"23 Nahe, Germany"
305,Europe,Germany,Palatinate,49.48221160000001,7.860948100000001,"Palatinate, Germany"
306,Europe,Germany,Rheingau,50.1402994,8.0695976,"Rheingau-Taunus-Kreis, 65, Germany"
307,Europe,Germany,Rheinhessen,51.165691,10.451526,Germany
308,Europe,Germany,Saale-Unstrut,51.24270993829025,11.05428021452045,"Unstrut, Germany"
309,Europe,Germany,Saxony,51.1045407,13.2017384,"Saxony, Germany"
310,Europe,Germany,Württemberg,48.6616037,9.3501336,"Baden-Württemberg, Germany"
311,Europe,Greece,Aegean islands,38.09556411145435,25.65031695609477,Aegean Islands
318,Europe,Greece,Central Greece,38.6043984,22.7152131,"Central Greece, Greece"
323,Europe,Greece,Macedonia,40.8176812,22.8527142,"Macedonia Greece, Greece"
326,Europe,Greece,Peloponnesus,37.349722,22.352222,"Peloponnese 220 16, Greece"
329,Europe,Hungary,Balaton,46.8302679,17.7340438,"Lake Balaton, Hungary"
335,Europe,Hungary,Duna,47.162494,19.503304,Hungary
338,Europe,Hungary,Eger,47.9025348,20.3772284,"Eger, Hungary"
346,Europe,Hungary,Pannon,47.162494,19.503304,Hungary
350,Europe,Hungary,Sopron,47.68166189999999,16.5844795,"Sopron, Hungary"
351,Europe,Hungary,Tokaj,48.1172148,21.4089015,"Tokaj, 3910 Hungary"
352,Europe,Ireland,Cork,51.8985143,-8.4756035,"Cork, Ireland"
353,Europe,Italy,Apulia,40.7928393,17.1011931,"Apulia, Italy"
355,Europe,Italy,Calabria,39.3087714,16.3463791,"Calabria, Italy"
365,Europe,Italy,Campania,41.1125078,14.8454619,"Campania, Italy"
372,Europe,Italy,Caserta,41.0720635,14.3312991,"81100 Caserta, Province of Caserta, Italy"
373,Europe,Italy,Napoli,40.8517983,14.26812,"Naples, Metropolitan City of Naples, Italy"
374,Europe,Italy,Salerno,40.6813313,14.7743583,"Salerno, SA, Italy"
375,Europe,Italy,Emilia-Romagna,44.5967607,11.2186396,"Emilia-Romagna, Italy"
378,Europe,Italy,Liguria,44.419658,8.528161299999999,"Liguria, Italy"
379,Europe,Italy,Lombardy,45.47906709999999,9.8452433,"Lombardy, Italy"
381,Europe,Italy,Marche,43.462735,13.3587288,"Marche, Italy"
384,Europe,Italy,Piedmont,45.0522366,7.5153885,"Piedmont, Italy"
396,Europe,Italy,Sardinia,40.1208752,9.012892599999999,"Sardinia, Italy"
402,Europe,Italy,Sicily,37.3979297,14.6587821,"Sicily, Italy"
405,Europe,Italy,Trentino-Alto Adige,46.4336662,11.1693296,"Trentino-South Tyrol, Italy"
407,Europe,Italy,Tuscany,43.5671153,10.9807003,"Tuscany, Italy"
424,Europe,Italy,Umbria,42.938004,12.6216211,"Umbria, Italy"
427,Europe,Italy,Veneto,45.76233329999999,11.690976,"Veneto, Italy"
446,Europe,Latvia,Sabile,57.0455148,22.572954,"Sabile, Sabiles pilsēta, Talsi Municipality, LV-3294, Latvia"
447,Europe,Lithuania,Anyk__i_ vynas – Anyk__iai,55.169438,23.881275,Lithuania
448,Europe,Lithuania,M_melio vynas – Priekul_,55.5361728,21.2976724,"Pjaulių g 16, 96344 Priekulė, Lithuania"
449,Europe,Luxembourg,Moselle Valley,49.815273,6.129582999999999,Luxembourg
450,Europe,Moldova,Bardar,46.9022819,28.6705716,"Bardar, Moldova"
451,Europe,Moldova,Codri,47.0964889,28.318513,"Codri, Moldova"
452,Europe,Moldova,Cricova,47.1345852,28.8650945,"Cricova, Moldova"
453,Europe,Moldova,Hînce_ti,47.411631,28.369885,Moldova
454,Europe,Moldova,Purcari,46.5370322,29.8632597,"Purcari, Moldova"
455,Europe,Montenegro,Crmnica,42.708678,19.37439,Montenegro
456,Europe,Montenegro,Planta_e,42.708678,19.37439,Montenegro
457,Europe,Netherlands,Groesbeek,51.7784317,5.934798799999999,"Groesbeek, Netherlands"
458,Europe,North Macedonia,Povardarie,41.608635,21.745275,North Macedonia
459,Europe,North Macedonia,Skopsko vinogorje,41.9981294,21.4254355,"Skopje, North Macedonia"
460,Europe,North Macedonia,Tikve_,41.608635,21.745275,North Macedonia
461,Europe,Norway,Viken,60.0389059,9.725371899999999,"Viken, Norway"
463,Europe,Norway,Sognefjord,61.1554244,6.5806337,"Sognefjord, Norway"
464,Europe,Poland,Dolny _l_sk,51.919438,19.145136,Poland
465,Europe,Poland,Kazimierz Dolny,51.3180409,21.9542483,"Kazimierz Dolny, Poland"
466,Europe,Poland,Ma_opolska,49.72253060000001,20.2503359,"Lesser Poland Voivodeship, Poland"
467,Europe,Poland,Podkarpacie,50.0574749,22.0895691,"Podkarpackie Voivodeship, Poland"
468,Europe,Poland,"Warka, near Warsaw",52.2296756,21.0122287,"Warsaw, Poland"
469,Europe,Poland,Zielona Góra,51.9356214,15.5061862,"Zielona Góra, Poland"
470,Europe,Portugal,Alentejo,38.2003808,-7.800084999999998,"Alentejo, Portugal"
471,Europe,Portugal,Bairrada,40.4601671,-8.4556658,"Bairrada DOC, Portugal"
472,Europe,Portugal,Bucelas,38.9012762,-9.120144999999999,"2670 Bucelas, Portugal"
473,Europe,Portugal,Carcavelos,38.690342,-9.3367751,"Carcavelos, Portugal"
474,Europe,Portugal,Colares,38.8066138,-9.4426937,"2705 Colares, Portugal"
475,Europe,Portugal,Dão,40.519982858616,-7.959497985005076,"Dão River, Portugal"
476,Europe,Portugal,Lagoa,37.1356631,-8.451722799999999,"8400 Lagoa, Portugal"
477,Europe,Portugal,Lagos,37.1027881,-8.6730275,"8600 Lagos, Portugal"
478,Europe,Portugal,Madeira,32.76070740000001,-16.9594723,"Madeira, Portugal"
479,Europe,Portugal,Portimão,37.13617,-8.5376926,"8500 Portimão, Portugal"
480,Europe,Portugal,Porto e Douro,41.1579438,-8.629105299999999,"Porto, Portugal"
481,Europe,Portugal,Setúbal,38.5260437,-8.8909328,"Setúbal, Portugal"
482,Europe,Portugal,Tavira,37.1335906,-7.643001899999999,"8800 Tavira, Portugal"
483,Europe,Portugal,Vinhos Verdes,39.39987199999999,-8.224454,Portugal
484,Europe,Romania,Banat,45.943161,24.96676,Romania
493,Europe,Romania,Cri_ana,45.943161,24.96676,Romania
498,Europe,Romania,Dobrogea,45.943161,24.96676,Romania
520,Europe,Romania,Moldavia,45.943161,24.96676,Romania
551,Europe,Romania,Muntenia,44.6628455,25.5450083,"South, Romania"
567,Europe,Romania,Oltenia,44.92536640000001,24.7153893,"117382 Drăganu-Olteni, Romania"
592,Europe,Romania,Transylvania,46.1840561,25.2223974,"Transylvania, Romania"
608,Europe,Russia,Caucasus,43.5851814,45.0,Caucasus
609,Europe,Russia,Krasnodar,45.036035,38.97457060000001,"Krasnodar, Krasnodar Krai, Russia"
610,Europe,Russia,Stavropol,45.0390116,41.9631954,"Stavropol, Stavropol Krai, Russia"
611,Europe,Serbia,Banat region,44.016521,21.005859,Serbia
612,Europe,Serbia,Ni_ava – South Morava region,44.016521,21.005859,Serbia
613,Europe,Serbia,Pocerina region,44.016521,21.005859,Serbia
614,Europe,Serbia,Srem region,45.0029171,19.8013773,"Srem District, Serbia"
615,Europe,Serbia,Subotica – Horgo_ region,46.1527346,19.9655305,"Horgoš, Serbia"
616,Europe,Serbia,_umadija – Great Morava region,44.20574536720186,21.22756176735834,"Great Morava, Serbia"
617,Europe,Serbia,Timok Valley,43.8891506,22.0089607,"Timočka Krajina, Serbia"
618,Europe,Serbia,West Morava region,44.016521,21.005859,Serbia
619,Europe,Slovakia,Malokarpatská,48.2582388,17.206717,"Malokarpatská, 900 21 Svätý Jur, Slovakia"
620,Europe,Slovakia,Ju_noslovenská,48.669026,19.699024,Slovakia
621,Europe,Slovakia,Nitrianska,48.4142508,17.8318249,"Nitrianska, 920 01 Hlohovec, Slovakia"
622,Europe,Slovakia,Stredoslovenská,48.669026,19.699024,Slovakia
624,Europe,Slovakia,V_chodoslovenská,48.669026,19.699024,Slovakia
625,Europe,Slovakia,southern Slovakia,48.669026,19.699024,Slovakia
626,Europe,Slovenia,Podravje,46.151241,14.995463,Slovenia
627,Europe,Slovenia,Posavje,46.0980806,14.5018458,"Posavje District, 1000 Ljubljana, Slovenia"
628,Europe,Slovenia,Primorska,45.9005145,13.8743767,"Slovene Littoral, Slovenia"
629,Europe,Spain,Andalusia,37.5442706,-4.7277528,"Andalusia, Spain"
634,Europe,Spain,Aragon,41.5976275,-0.9056623,"Aragon, Spain"
639,Europe,Spain,Balearic Islands,39.35877591790004,2.735632782011336,"Balearic Islands, Spain"
641,Europe,Spain,Basque Country,42.9896248,-2.6189273,"Basque Country, Spain"
646,Europe,Spain,Canary Islands,28.2915637,-16.6291304,"Canary Islands, Spain"
656,Europe,Spain,Castile and León,41.83568210000001,-4.397635699999999,"Castile and León, Spain"
670,Europe,Spain,Castile–La Mancha,39.2795607,-3.097702,"Castile-La Mancha, Spain"
680,Europe,Spain,Catalonia,41.5911589,1.5208624,"Catalonia, Spain"
692,Europe,Spain,Extremadura,39.4937392,-6.0679194,"Extremadura, Spain"
694,Europe,Spain,Galicia,42.5750554,-8.1338558,"Galicia, Spain"
699,Europe,Spain,La Rioja,42.2870733,-2.539603,"La Rioja, Spain"
701,Europe,Spain,Madrid,40.4167754,-3.7037902,"Madrid, Spain"
702,Europe,Spain,Región de Murcia,38.1398141,-1.366216,"Region of Murcia, Murcia, Spain"
705,Europe,Spain,Navarre,42.6953909,-1.6760691,"Navarre, Spain"
708,Europe,Spain,Valencian Community,39.4840108,-0.7532808999999999,"Valencian Community, Spain"
712,Europe,Sweden,Gutevin – Gotland,57.46841209999999,18.4867447,"Gotland, Sweden"
713,Europe,Switzerland,Aargau,47.3876664,8.2554295,"Aargau, Switzerland"
714,Europe,Switzerland,Bern,46.9479739,7.4474468,"Bern, Switzerland"
716,Europe,Switzerland,Freiburg,46.8064773,7.161971899999999,"Fribourg, Switzerland"
717,Europe,Switzerland,Geneva,46.2043907,6.1431577,"Geneva, Switzerland"
718,Europe,Switzerland,Grisons,46.65698709999999,9.578025700000001,"Grisons, Switzerland"
719,Europe,Switzerland,Neuchâtel,46.9899874,6.9292732,"Neuchâtel, Switzerland"
720,Europe,Switzerland,St. Gallen,47.4244818,9.3767173,"St Gallen, Switzerland"
721,Europe,Switzerland,Schaffhausen,47.6958897,8.6380488,"Schaffhausen, Switzerland"
722,Europe,Switzerland,Thurgau,47.60378559999999,9.0557371,"Thurgau, Switzerland"
723,Europe,Switzerland,Ticino,46.331734,8.800452900000002,"Ticino, Switzerland"
724,Europe,Switzerland,Valais,46.1904614,7.5449226,"Valais, Switzerland"
725,Europe,Switzerland,Vaud,46.5613135,6.536765,"Vaud, Switzerland"
727,Europe,Switzerland,Zürich,47.3768866,8.541694,"Zürich, Switzerland"
728,Europe,Turkey,Adakarası – Marmara region and Av_a Island,41.264899,28.1122679,"Marmara Region, Türkiye"
729,Europe,Turkey,Bo_azkere – Elazı_ and Diyarbakır areas,37.9249733,40.2109826,"Diyarbakır, Türkiye"
730,Europe,Turkey,"Çalkarası – Çal, Denizli area",38.083013,29.397279,"Çal, Denizli, Türkiye"
731,Europe,Turkey,Dimrit – central Anatolia and eastern Aegean region,38.963745,35.243322,Türkiye
732,Europe,Turkey,"Horozkarası, Sergikarası – southeastern Anatolia region",38.963745,35.243322,Türkiye
733,Europe,Turkey,Kalecik Karası – Ankara area,39.9333635,32.8597419,"Ankara, Türkiye"
734,Europe,Turkey,"Karalahna – Tekirda_ region, Bozcaada",40.9780919,27.511674,"Tekirdağ, Süleymanpaşa/Tekirdağ, Türkiye"
735,Europe,Turkey,"Karasakız, Kuntra – Çanakkale region",40.14671999999999,26.408587,"Çanakkale, Çanakkale Merkez/Çanakkale, Türkiye"
736,Europe,Turkey,Öküzgözü – Elazı_ area,38.674816,39.22251500000001,"Elâzığ, Elâzığ Merkez/Elazığ, Türkiye"
737,Europe,Turkey,Papazkarası – Kırklareli area,41.735472,27.224369,"Kırklareli, Kırklareli Merkez/Kırklareli, Türkiye"
738,Europe,Ukraine,Autonomous Republic of Crimea and Sevastopol,44.952117,34.102417,Crimea
739,Europe,Ukraine,Kherson Oblast,46.635417,32.616867,"Kherson Oblast, Ukraine"
740,Europe,Ukraine,Mykolaiv Oblast,46.975033,31.994583,"Mykolaiv Oblast, Ukraine"
741,Europe,Ukraine,Odesa Oblast,46.484583,30.7326,"Odesa Oblast, Ukraine"
742,Europe,Ukraine,Zakarpattia Oblast,48.6208,22.287883,"Zakarpattia Oblast, Ukraine"
743,Europe,Ukraine,Zaporizhzhia Oblast,47.8388,35.139567,"Zaporizhia Oblast, Ukraine"
744,Asia,Armenia,Ararat Valley,39.8551211,44.694273,"Ararat, Armenia"
745,Asia,Armenia,"Areni, Vayots Dzor Province",39.7230741,45.18589859999999,"Areni 3604, Armenia"
746,Asia,Armenia,"Ijevan, Tavush Province",40.8791442,45.1470572,"Ijevan, Armenia"
747,Asia,Azerbaijan,"Aghdam, Agdam District",39.991094,46.9297085,"Aghdam, Azerbaijan"
748,Asia,Azerbaijan,"Baku, capital",40.40926169999999,49.8670924,"Baku, Azerbaijan"
749,Asia,Azerbaijan,"Ganja, Ganja-Basar zone",40.6847561,46.346771,"M8PX+43F, Ganja, Azerbaijan"
750,Asia,Azerbaijan,"Madrasa village of Shamakhi Rayon, Madrasa",40.6115685,48.560997,"Medrese, Azerbaijan"
751,Asia,Azerbaijan,"Tovuz, northwestern Azerbaijan",40.9954523,45.6165907,"Tovuz, Azerbaijan"
753,Asia,Burma,Shan State,22.0361985,98.1338558,"Shan, Myanmar (Burma)"
754,Asia,China,Chang'an,22.814768,113.802516,"Chang'anzhen, Dongguan, Guangdong Province, China, 523850"
755,Asia,China,Gaochang,42.9424399,89.18596,"Gaochang District, Turpan, Xinjiang, China"
756,Asia,China,Luoyang,34.6181299,112.45402,"Luoyang, Henan, China"
757,Asia,China,Qiuci,35.86166,104.195397,China
758,Asia,China,Yantai-Penglai,37.8106399,120.75898,"Penglai, Yantai, Shandong, China"
760,Asia,China,"Dalian, Liaoning",38.9139899,121.6147,"Dalian, Liaoning, China"
761,Asia,China,"Tonghua, Jilin",41.7282899,125.9399,"Tonghua, Jilin, China"
762,Asia,China,"Yantai, Shandong",37.4635299,121.44801,"Yantai, Shandong, China"
763,Asia,China,"Yibin, Sichuan",28.7512999,104.6417,"Yibin, Sichuan, China"
764,Asia,China,"Zhangjiakou, Hebei",40.7686911,114.8855792,"Zhangjiakou, Hebei, China"
765,Asia,India,"Nashik, Maharashtra",19.9974533,73.78980229999999,"Nashik, Maharashtra, India"
766,Asia,India,"Bangalore, Karnataka",12.9715987,77.5945627,"Bengaluru, Karnataka, India"
767,Asia,India,"Vijayapura, Karnataka",16.8301708,75.710031,"Vijayapura, Karnataka, India"
768,Asia,India,Narayangaon,19.1177853,73.9740704,"Narayangaon, Maharashtra, India"
769,Asia,India,"Pune, Maharashtra",18.5204303,73.8567437,"Pune, Maharashtra, India"
770,Asia,India,"Sangli, Maharashtra",16.8523973,74.5814773,"Sangli, Maharashtra, India"
771,Asia,Indonesia,Bali,-8.4095178,115.188916,"Bali, Indonesia"
772,Asia,Iran,Malayer,34.3031914,48.8139903,"Malayer, Hamadan Province, Iran"
773,Asia,Iran,Shiraz,29.5926119,52.5835646,"Shiraz, Fars Province, Iran"
774,Asia,Iran,Takestan,36.0672206,49.6960826,"Takestan, Qazvin Province, Iran"
775,Asia,Iran,Urmia,37.5498061,45.0786282,"Urmia, West Azerbaijan Province, Iran"
776,Asia,Iran,Qazvin,36.2795045,50.0045669,"Qazvin, Qazvin Province, Iran"
777,Asia,Iran,Quchan,37.1008001,58.50544419999999,"Quchan, Iran"
778,Asia,Israel,Galilee,31.046051,34.851612,Israel
779,Asia,Israel,Golan Heights,33.01558540000001,35.784354,Golan
780,Asia,Israel,Judean Hills,31.6666667,35.1666667,Har Yehuda
784,Asia,Israel,Rishon LeZion,31.95908129999999,34.8020886,"Rishon LeTsiyon, Israel"
785,Asia,Japan,Yamanashi,35.6933453,138.6873168,"Yamanashi, Japan"
786,Asia,Japan,Hokkaido,43.2203266,142.8634737,"Hokkaido, Japan"
787,Asia,Japan,Nagano,36.6485258,138.1950371,"Nagano, Japan"
788,Asia,South Korea,"Anseong, Gyeonggi-do",37.03503300000001,127.3027301,"Anseong-si, Gyeonggi-do, South Korea"
789,Asia,South Korea,"Gimcheon, Gyeongsangbuk-do",36.0603835,128.0777247,"Gimcheon-si, Gyeongsangbuk-do, South Korea"
790,Asia,South Korea,"Gyeongsan, Gyeongsangbuk-do",35.8337972,128.8090748,"Gyeongsan-si, Gyeongsangbuk-do, South Korea"
791,Asia,South Korea,"Yeongcheon, Gyeongsangbuk-do",36.0156997,128.9427024,"Yeongcheon-si, Gyeongsangbuk-do, South Korea"
792,Asia,South Korea,"Yeongdong, Chungcheongbuk-do",36.1597002,127.8142287,"Yeongdong-gun, Chungcheongbuk-do, South Korea"
793,Asia,Lebanon,Bekaa Valley,34.008889,36.145278,"Beqaa Valley, Lebanon"
797,Asia,Lebanon,Mount Lebanon,33.8100858,35.5973139,"Mount Lebanon Governorate, Lebanon"
805,Asia,Lebanon,North Governorate,34.4380625,35.8308233,"North Governorate, Lebanon"
811,Asia,Lebanon,South Governorate,33.2721479,35.2032778,"South Governorate, Lebanon"
814,Asia,Palestinian territories,Beit Jala,31.715999,35.187149,Bayt Jala
815,Asia,Palestinian territories,Hebron,31.532569,35.09982600000001,Hebron
816,Asia,Syria,Bloudan,33.7257757,36.1269844,"Bloudan, Syria"
817,Asia,Syria,Homs District,34.2272532,37.12585929999999,"Homs, Syria"
818,Asia,Syria,Jabal el Druze,32.666667,36.733333,"Jabal al-Druze, Syria"
819,Asia,Syria,Latakia,35.541768,35.7987581,"Latakia, Syria"
820,Asia,Syria,Sednaya,33.6969573,36.3744387,"Sednayah, Syria"
821,Asia,Syria,Syrian Golan,34.80207499999999,38.996815,Syria
822,Asia,Syria,Tartous,34.8959276,35.8866517,"Tartus‎, Syria"
823,Asia,Vietnam,Da Lat,11.9404192,108.4583132,"Dalat, Lam Dong, Vietnam"
824,Oceania,Australia,Canberra District wine region,-35.2801846,149.1310324,"Canberra ACT, Australia"
825,Oceania,Australia,"Hall, Australian Capital Territory",-35.1675042,149.0680141,"Hall ACT 2618, Australia"
826,Oceania,Australia,Majura,-35.3072796,149.1808044,"Majura, ACT 2609, Australia"
827,Oceania,Australia,Big Rivers,-36.96682911531438,147.4853574811491,"Big River, Glen Valley VIC 3898, Australia"
832,Oceania,Australia,Central Ranges,-25.274398,133.775136,Australia
836,Oceania,Australia,Hunter Valley,-32.1932173,151.700565,"Hunter Region, NSW, Australia"
839,Oceania,Australia,Northern Rivers,-29.2758152,153.0147578,"Northern Rivers, NSW, Australia"
840,Oceania,Australia,Northern Tablelands,-18.6573602,134.4565517,"Tablelands NT 0862, Australia"
841,Oceania,Australia,South Coast,-36.6806101,149.6564494,"South Coast, NSW, Australia"
843,Oceania,Australia,Southern New South Wales,-34.0640771,151.0937206,"Southern Sydney, NSW, Australia"
847,Oceania,Australia,Granite Belt,-25.274398,133.775136,Australia
848,Oceania,Australia,South Burnett,-26.4702146,151.6070583,"South Burnett, QLD, Australia"
849,Oceania,Australia,Barossa,-34.5333333,138.95,"Barossa Valley, Tanunda SA 5352, Australia"
853,Oceania,Australia,Far North,-25.274398,133.775136,Australia
854,Oceania,Australia,Fleurieu,-35.5,138.5,"Fleurieu Peninsula, Inman Valley SA 5211, Australia"
859,Oceania,Australia,Limestone Coast,-36.7235617,140.3481835,"Limestone Coast, SA, Australia"
865,Oceania,Australia,Lower Murray,-35.40926030372019,143.7620269497911,"Murray River, Australia"
866,Oceania,Australia,Mount Lofty Ranges,-34.9735979,138.708631,"Mount Lofty, Cleland SA 5152, Australia"
870,Oceania,Australia,Coal River,-42.74902501185371,147.4523853516177,"Coal River, Tasmania, Australia"
871,Oceania,Australia,Derwent Valley,-42.8005992,146.48805,"Derwent Valley, TAS, Australia"
872,Oceania,Australia,East Coast,-27.6728168,148.3716902,"Eastern states of Australia, Australia"
873,Oceania,Australia,North West,-25.274398,133.775136,Australia
874,Oceania,Australia,Pipers River,-41.0987818,147.076326,"Pipers River TAS 7252, Australia"
875,Oceania,Australia,Southern,-30.0002315,136.2091547,"South Australia, Australia"
876,Oceania,Australia,Tamar Valley,-41.2179383,146.912786,"Tamar Valley, Sidmouth TAS 7270, Australia"
877,Oceania,Australia,Central Victoria,-36.9847807,143.3906074,"Victoria, Australia"
882,Oceania,Australia,Gippsland,-37.5831982,147.4627259,"Gippsland, VIC, Australia"
883,Oceania,Australia,North East Victoria,-36.9847807,143.3906074,"Victoria, Australia"
888,Oceania,Australia,North West Victoria,-36.9847807,143.3906074,"Victoria, Australia"
890,Oceania,Australia,Port Phillip,-37.8464983,144.9666905,"Port Phillip, VIC, Australia"
895,Oceania,Australia,Western Victoria,-37.6975835,142.4039296,"Western District of Victoria, VIC, Australia"
898,Oceania,Australia,Peel,-32.5671424,115.7991829,"Peel, WA, Australia"
899,Oceania,Australia,Perth Hills,-32.1384821,116.1832068,"Western Australia, Australia"
900,Oceania,Australia,Swan Valley,-31.8331879,116.0032278,"Swan Valley, Herne Hill WA 6056, Australia"
901,Oceania,Australia,South Western Australia,-34.0556829,116.0413889,"South West, WA, Australia"
912,Oceania,New Zealand,Auckland,-36.85088270000001,174.7644881,"Auckland, New Zealand"
916,Oceania,New Zealand,Canterbury,-43.7542275,171.1637245,"Canterbury, New Zealand"
918,Oceania,New Zealand,Central Otago,-44.9566315,169.3988451,"Central Otago, New Zealand"
922,Oceania,New Zealand,Gisborne,-38.6640913,178.0227931,"Gisborne, New Zealand"
923,Oceania,New Zealand,Hawke's Bay,-39.6016597,176.5804473,"Hawke's Bay, New Zealand"
926,Oceania,New Zealand,Marlborough,-41.5916883,173.7624053,"Marlborough District, Marlborough, New Zealand"
929,Oceania,New Zealand,Nelson,-41.2985321,173.2443635,"Nelson, New Zealand"
930,Oceania,New Zealand,Northland,-35.4136172,173.9320806,"Northland, New Zealand"
931,Oceania,New Zealand,Waikato,-37.6190862,175.023346,"Waikato District, Waikato, New Zealand"
932,Oceania,New Zealand,Wairarapa,-40.4062118,176.0937312,"Wairarapa, New Zealand"
934,Oceania,New Zealand,Waitaki Valley,-44.8111179,170.2915538,"Waitaki District, Canterbury, New Zealand"
