STATION,DATE,LATITUDE,LONGITUDE,ELEVATION,NAME,CDSD,CDSD_ATTRIBUTES,CLDD,CLDD_ATTRIBUTES,DP01,DP01_ATTRIBUTES,DP10,DP10_ATTRIBUTES,DP1X,DP1X_ATTRIBUTES,DSND,DSND_ATTRIBUTES,DSNW,DSNW_ATTRIBUTES,DT00,DT00_ATTRIBUTES,DT32,DT32_ATTRIBUTES,DX32,DX32_ATTRIBUTES,DX70,DX70_ATTRIBUTES,DX90,DX90_ATTRIBUTES,DYNT,DYNT_ATTRIBUTES,DYSD,DYSD_ATTRIBUTES,DYSN,DYSN_ATTRIBUTES,DYTS,DYTS_ATTRIBUTES,DYXP,DYXP_ATTRIBUTES,DYXT,DYXT_ATTRIBUTES,EMNT,EMNT_ATTRIBUTES,EMSD,EMSD_ATTRIBUTES,EMSN,EMSN_ATTRIBUTES,EMXP,EMXP_ATTRIBUTES,EMXT,EMXT_ATTRIBUTES,HDSD,HDSD_ATTRIBUTES,HTDD,HTDD_ATTRIBUTES,PRCP,PRCP_ATTRIBUTES,SNOW,SNOW_ATTRIBUTES,TAVG,TAVG_ATTRIBUTES,TMAX,TMAX_ATTRIBUTES,TMIN,TMIN_ATTRIBUTES,DYFG,DYFG_ATTRIBUTES,ADPT,ADPT_ATTRIBUTES,ASLP,ASLP_ATTRIBUTES,ASTP,ASTP_ATTRIBUTES,AWBT,AWBT_ATTRIBUTES,AWND,AWND_ATTRIBUTES,EVAP,EVAP_ATTRIBUTES,MNPN,MNPN_ATTRIBUTES,MXPN,MXPN_ATTRIBUTES,PSUN,PSUN_ATTRIBUTES,RHAV,RHAV_ATTRIBUTES,RHMN,RHMN_ATTRIBUTES,RHMX,RHMX_ATTRIBUTES,TSUN,TSUN_ATTRIBUTES,WDF1,WDF1_ATTRIBUTES,WDF2,WDF2_ATTRIBUTES,WDF5,WDF5_ATTRIBUTES,WDFG,WDFG_ATTRIBUTES,WDFM,WDFM_ATTRIBUTES,WDMV,WDMV_ATTRIBUTES,WSF1,WSF1_ATTRIBUTES,WSF2,WSF2_ATTRIBUTES,WSF5,WSF5_ATTRIBUTES,WSFG,WSFG_ATTRIBUTES,WSFM,WSFM_ATTRIBUTES
ACW00011604,1949-01,17.11667,-61.78333,10.1,"ST JOHNS COOLIDGE FIELD, AC",182.6,,182.6,",X",14.0,",X",9.0,",X",0.0,",X",0.0,",X",0.0,",X",0.0,",X",0.0,",X",0.0,",X",31.0,",X",0.0,",X",19490113.0,",,X",19490131.0,"+,,X",19490131.0,"+,,X",,,19490129.0,",,X",19490106.0,"+,,X",16.1,",X,13,",0.0,",,X,31,+",0.0,",,X,31,+",8.6,",,X,29,",28.9,",X,06,+",,,0.0,",X",46.2,",,,X",0.0,",,,X",24.22,",X",27.46,",,,X",20.98,",,,X",,,,,,,,,,,,,,,,,,,,,,,,,,,,,,,,,,,,,,,,,,,,,,,,,,
ACW00011647,1957-09,17.13333,-61.78333,19.2,"ST JOHNS, AC",,,,,18.0,",X",7.0,",X",1.0,",X",0.0,",X",0.0,",X",,,,,,,,,,,,,19570930.0,"+,,X",19570930.0,"+,,X",,,19570924.0,",,X",,,,,0.0,",,X,30,+",0.0,",,X,30,+",52.1,",,X,24,",,,,,,,103.6,",,,X",0.0,",,,X",,,,,,,,,,,,,,,,,,,,,,,,,,,,,,,,,,,,,,,,,,,,,,,,,,,,,,,,
AE000041196,1944-04,25.333,55.517,34.0,"SHARJAH INTER. AIRP, AE",,,184.1,"4,I",0.0,",I",0.0,",I",0.0,",I",,,,,0.0,"4,I",0.0,"4,I",0.0,",I",30.0,",I",13.0,",I",19440405.0,",4,I",,,,,,,19440430.0,"+,,I",19440408.0,",,I",13.5,"4,I,05,",,,,,0.0,",,I,30,+",39.1,",I,08,",,,0.0,",I",0.0,",,,I",,,25.37,"4,I",32.15,",,,I",18.6,"4,,,I",,,,,,,,,,,,,,,,,,,,,,,,,,,,,,,,,,,,,,,,,,,,,,,,,,
AEM00041194,1983-01,25.255,55.364,10.4,"DUBAI INTERNATIONAL, AE",,,,,,,,,,,,,,,,,,,0.0,"3,S",19.0,"3,S",0.0,"3,S",,,,,,,,,,,19830102.0,",3,S",,,,,,,,,30.2,"3,S,02,",,,,,,,,,,,22.87,"3,,,S",,,,,,,,,,,,,,,,,,,,,,,,,,,,,,,,,,,,,,,,,,,,,,,,,,,,
AEM00041217,1983-06,24.433,54.651,26.8,"ABU DHABI INTERNATIONAL, AE",,,,,,,,,,,,,,,0.0,"5,S",0.0,"5,S",0.0,"5,S",25.0,"5,S",25.0,"5,S",19830602.0,",5,S",,,,,,,,,19830603.0,",5,S",21.2,"5,S,02,",,,,,,,44.2,"5,S,03,",,,,,,,,,32.7,"9,S",39.9,"5,,,S",25.5,"5,,,S",,,,,,,,,,,,,,,,,,,,,,,,,,,,,,,,,,,,,,,,,,,,,,,,,,
AEM00041218,1994-04,24.262,55.609,264.9,"AL AIN INTERNATIONAL, AE",,,,,,,,,,,,,,,,,,,0.0,"2,S",28.0,"2,S",25.0,"2,S",,,,,,,,,,,19940430.0,"+,2,S",,,,,,,,,42.5,"2,S,30,+",,,,,,,,,,,37.01,"2,,,S",,,,,,,,,,,,,,,,,,,,,,,,,,,,,,,,,,,,,,,,,,,,,,,,,,,,
AF000040930,1979-10,35.317,69.017,3366.0,"NORTH SALANG, AF",,,,,,,,,,,,,,,0.0,"4,I",18.0,"4,I",,,,,,,19791017.0,"+,4,I",,,,,,,,,,,-4.0,"4,I,17,+",,,,,,,,,,,,,,,,,,,,,-0.89,"4,,,I",,,,,,,,,,,,,,,,,,,,,,,,,,,,,,,,,,,,,,,,,,,,,,,,,,
AFM00040938,1979-07,34.21,62.228,977.2,"HERAT, AF",,,,,,,,,,,,,,,0.0,"4,S",0.0,"4,S",,,,,,,19790701.0,",4,S",,,,,,,,,,,16.0,"4,S,01,",,,,,,,,,,,,,,,,,,,,,20.85,"4,,,S",,,,,,,,,,,,,,,,,,,,,,,,,,,,,,,,,,,,,,,,,,,,,,,,,,
AFM00040948,1977-10,34.566,69.212,1791.3,"KABUL INTERNATIONAL, AF",,,,,,,,,,,,,,,0.0,"5,S",0.0,"5,S",,,,,,,19771031.0,"+,5,S",,,,,,,,,,,2.0,"5,S,31,+",,,,,,,,,,,,,,,,,,,,,5.77,"5,,,S",,,,,,,,,,,,,,,,,,,,,,,,,,,,,,,,,,,,,,,,,,,,,,,,,,
AFM00040990,2014-02,31.5,65.85,1010.0,"KANDAHAR AIRPORT, AF",,,,,,,,,,,,,,,,,,,1.0,"5,S",1.0,"5,S",0.0,"5,S",,,,,,,,,,,20140224.0,",5,S",,,,,,,,,21.6,"5,S,24,",,,,,,,,,,,12.62,"5,,,S",,,,,,,,,,,,,,,,,,,,,,,,,,,,,,,,,,,,,,,,,,,,,,,,,,,,
AG000060390,1940-01,36.7167,3.25,24.0,"ALGER DAR EL BEIDA, AG",0.0,E,0.0,",E",13.0,"4,E",8.0,"4,E",1.0,"4,E",,,,,0.0,",G",0.0,",E",0.0,",G",1.0,",G",0.0,",G",19400119.0,",,E",,,,,,,19400109.0,",4,E",19400101.0,",,G",0.2,",E,19,",,,,,30.4,"4,,E,09,",22.4,",G,01,",,,231.6,",G",144.4,"4,,,E",,,10.86,",E",15.68,",,,G",6.04,",,,E",,,,,,,,,,,,,,,,,,,,,,,,,,,,,,,,,,,,,,,,,,,,,,,,,,
AG000060590,1892-01,30.5667,2.8667,397.0,"EL GOLEA, AG",,,,,0.0,",E",0.0,",E",0.0,",E",,,,,0.0,",",3.0,",E",,,,,,,18920116.0,",,E",,,,,,,18920131.0,"+,,E",,,-2.0,",E,16,",,,,,0.0,",,E,31,+",,,,,,,0.0,",,,E",,,,,,,3.42,",,,E",,,,,,,,,,,,,,,,,,,,,,,,,,,,,,,,,,,,,,,,,,,,,,,,,,
AG000060611,1958-10,28.05,9.6331,561.0,"IN AMENAS, AG",,,143.4,",G",0.0,",I",0.0,",I",0.0,",I",,,,,0.0,",G",0.0,",G",0.0,",G",31.0,",G",11.0,",G",19581024.0,",,G",,,,,,,19581031.0,"+,,I",19581004.0,"+,,G",7.6,",G,24,",,,,,0.0,",,I,31,+",38.3,",G,04,+",,,3.9,",G",0.0,",,,I",,,22.83,",G",30.93,",,,G",14.74,",,,G",,,,,,,,,,,,,,,,,,,,,,,,,,,,,,,,,,,,,,,,,,,,,,,,,,
AG000060680,1940-01,22.8,5.4331,1362.0,"TAMANRASSET, AG",0.0,G,0.0,",G",0.0,",I",0.0,",I",0.0,",I",,,,,0.0,",G",2.0,",G",0.0,",G",15.0,",G",0.0,",G",19400125.0,",,G",,,,,,,19400131.0,"+,,I",19400104.0,",,G",-0.4,",G,25,",,,,,0.0,",,I,31,+",24.2,",G,04,",,,187.2,",G",0.0,",,,I",,,12.29,",G",20.47,",,,G",4.12,",,,G",,,,,,,,,,,,,,,,,,,,,,,,,,,,,,,,,,,,,,,,,,,,,,,,,,
AGE00135039,1852-01,35.7297,0.65,50.0,"ORAN HOPITAL MILITAIRE, AG",0.0,E,0.0,"1,E",11.0,",E",8.0,",E",1.0,",E",,,,,0.0,"1,E",0.0,"1,E",0.0,"1,E",0.0,"1,E",0.0,"1,E",18520107.0,",1,E",,,,,,,18520103.0,",,E",18520131.0,",1,E",3.5,"1,E,07,",,,,,25.5,",,E,03,",16.3,"1,E,31,",,,225.3,"1,E",77.7,",,,E",,,10.82,"1,E",14.14,"1,,,E",7.5,"1,,,E",,,,,,,,,,,,,,,,,,,,,,,,,,,,,,,,,,,,,,,,,,,,,,,,,,
AGE00147704,1909-12,36.97,7.79,161.0,"ANNABA CAP DE GARDE, AG",,,4.0,",E",5.0,",E",4.0,",E",0.0,",E",,,,,0.0,",E",0.0,",E",0.0,",E",6.0,",E",0.0,",E",19091211.0,"+,,E",,,,,,,19091208.0,",,E",19091224.0,",,E",5.0,",E,11,+",,,,,25.0,",,E,08,",26.0,",E,24,",,,130.8,",E",54.0,",,,E",,,14.24,",E",17.9,",,,E",10.58,",,,E",,,,,,,,,,,,,,,,,,,,,,,,,,,,,,,,,,,,,,,,,,,,,,,,,,
AGE00147705,1877-05,36.78,3.07,59.0,"ALGIERS VILLE UNIVERSITE, AG",,,,,4.0,"5,E",0.0,"5,E",0.0,"5,E",,,,,,,,,,,,,,,,,,,,,,,18770527.0,",5,E",,,,,,,,,1.8,"5,,E,27,",,,,,,,5.4,"5,,,E",,,,,,,,,,,,,,,,,,,,,,,,,,,,,,,,,,,,,,,,,,,,,,,,,,,,,,,,,,
AGE00147706,1893-01,36.8,3.03,344.0,"ALGIERS BOUZAREAH, AG",0.0,E,0.0,"4,E",12.0,"1,E",7.0,"1,E",1.0,"1,E",,,,,0.0,"2,E",0.0,"2,E",0.0,"2,E",0.0,"2,E",0.0,"2,E",18930117.0,",2,E",,,,,,,18930112.0,",1,E",18930109.0,"+,2,E",1.0,"2,E,17,",,,,,39.0,"1,,E,12,",18.0,"2,E,09,+",,,230.6,"2,E",92.6,"1,,,E",,,9.53,"4,E",12.04,"2,,,E",7.02,"2,,,E",,,,,,,,,,,,,,,,,,,,,,,,,,,,,,,,,,,,,,,,,,,,,,,,,,
AGE00147707,1878-01,36.8,3.04,38.0,"ALGIERS CAP CAXINE, AG",0.0,E,0.0,",E",9.0,",E",5.0,",E",1.0,",E",,,,,0.0,",E",0.0,",E",0.0,",E",0.0,",E",0.0,",E",18780114.0,"+,,E",,,,,,,18780113.0,",,E",18780109.0,",,E",5.0,",E,14,+",,,,,46.2,",,E,13,",16.2,",E,09,",,,207.2,",E",96.3,",,,E",,,11.65,",E",13.99,",,,E",9.3,",,,E",,,,,,,,,,,,,,,,,,,,,,,,,,,,,,,,,,,,,,,,,,,,,,,,,,
AGE00147708,1879-02,36.72,4.05,222.0,"TIZI OUZOU, AG",,,,,6.0,"2,E",5.0,"2,E",0.0,"2,E",,,,,,,,,,,,,,,,,,,,,,,18790205.0,",2,E",,,,,,,,,19.0,"2,,E,05,",,,,,,,41.0,"2,,,E",,,,,,,,,,,,,,,,,,,,,,,,,,,,,,,,,,,,,,,,,,,,,,,,,,,,,,,,,,
AGE00147709,1879-02,36.63,4.2,942.0,"FORT NATIONAL, AG",,,,,6.0,"2,E",5.0,"2,E",0.0,"2,E",,,,,,,,,,,,,,,,,,,,,,,18790205.0,",2,E",,,,,,,,,19.0,"2,,E,05,",,,,,,,41.0,"2,,,E",,,,,,,,,,,,,,,,,,,,,,,,,,,,,,,,,,,,,,,,,,,,,,,,,,,,,,,,,,
AGE00147710,1909-12,36.75,5.1,9.0,"BEJAIA BOUGIE PORT, AG",,,9.8,"1,E",9.0,",E",8.0,",E",0.0,",E",,,,,0.0,"1,E",0.0,"1,E",0.0,",E",7.0,",E",0.0,",E",19091212.0,"+,1,E",,,,,,,19091210.0,",,E",19091224.0,",,E",5.0,"1,E,12,+",,,,,24.7,",,E,10,",28.0,",E,24,",,,130.8,",E",71.8,",,,E",,,14.16,"1,E",18.52,",,,E",9.8,"1,,,E",,,,,,,,,,,,,,,,,,,,,,,,,,,,,,,,,,,,,,,,,,,,,,,,,,
AGE00147711,1880-06,36.3697,6.62,660.0,"CONSTANTINE, AG",,,,,0.0,",E",0.0,",E",0.0,",E",,,,,,,,,,,,,,,,,,,,,,,18800630.0,"+,,E",,,,,,,,,0.0,",,E,30,+",,,,,,,0.0,",,,E",,,,,,,,,,,,,,,,,,,,,,,,,,,,,,,,,,,,,,,,,,,,,,,,,,,,,,,,,,
AGE00147712,1879-01,36.17,1.34,112.0,"ORLEANSVILLE CHLEF, AG",,,,,8.0,",E",6.0,",E",0.0,",E",,,,,,,,,,,,,,,,,,,,,,,18790108.0,",,E",,,,,,,,,22.4,",,E,08,",,,,,,,49.0,",,,E",,,,,,,,,,,,,,,,,,,,,,,,,,,,,,,,,,,,,,,,,,,,,,,,,,,,,,,,,,
AGE00147713,1878-01,36.18,5.4,1081.0,"SETIF, AG",0.0,E,0.0,",E",10.0,",E",4.0,",E",0.0,",E",,,,,0.0,",E",23.0,",E",0.0,",E",0.0,",E",0.0,",E",18780113.0,",,E",,,,,,,18780113.0,",,E",18780123.0,",,E",-4.0,",E,13,",,,,,8.4,",,E,13,",12.5,",E,23,",,,458.2,",E",29.9,",,,E",,,3.55,",E",7.93,",,,E",-0.83,",,,E",,,,,,,,,,,,,,,,,,,,,,,,,,,,,,,,,,,,,,,,,,,,,,,,,,
AGE00147714,1896-01,35.77,0.8,78.0,"ORAN CAP FALCON, AG",0.0,E,0.0,",E",7.0,",E",5.0,",E",0.0,",E",,,,,0.0,",E",0.0,",E",0.0,",E",1.0,",E",0.0,",E",18960110.0,",,E",,,,,,,18960125.0,",,E",18960104.0,",,E",3.8,",E,10,",,,,,11.7,",,E,25,",23.6,",E,04,",,,170.7,",E",39.9,",,,E",,,12.83,",E",15.83,",,,E",9.82,",,,E",,,,,,,,,,,,,,,,,,,,,,,,,,,,,,,,,,,,,,,,,,,,,,,,,,
AGE00147715,1879-01,35.42,8.1197,863.0,"TEBESSA, AG",,,,,4.0,",E",2.0,",E",0.0,",E",,,,,,,,,,,,,,,,,,,,,,,18790130.0,",,E",,,,,,,,,6.0,",,E,30,",,,,,,,13.0,",,,E",,,,,,,,,,,,,,,,,,,,,,,,,,,,,,,,,,,,,,,,,,,,,,,,,,,,,,,,,,
AGE00147716,1878-01,35.1,-1.85,83.0,"NEMOURS GHAZAOUET, AG",0.0,,0.0,",E",4.0,",E",4.0,",E",1.0,",E",,,,,0.0,",E",0.0,",E",0.0,",E",0.0,",E",0.0,",E",18780115.0,"+,,E",,,,,,,18780111.0,",,E",18780125.0,",,E",0.4,",E,15,+",,,,,27.5,",,E,11,",20.3,",E,25,",,,249.2,",E",52.2,",,,E",,,10.29,",E",15.85,",,,E",4.74,",,,E",,,,,,,,,,,,,,,,,,,,,,,,,,,,,,,,,,,,,,,,,,,,,,,,,,
AGE00147717,1880-01,35.2,0.63,476.0,"SIDI BEL ABBES, AG",0.0,E,0.0,",E",6.0,",E",5.0,",E",0.0,",E",,,,,0.0,",E",24.0,",E",0.0,",E",0.0,",E",0.0,",E",18800114.0,",,E",,,,,,,18800131.0,",,E",18800119.0,",,E",-8.3,",E,14,",,,,,18.0,",,E,31,",19.4,",E,19,",,,393.9,",E",52.0,",,,E",,,5.63,",E",13.75,",,,E",-2.49,",,,E",,,,,,,,,,,,,,,,,,,,,,,,,,,,,,,,,,,,,,,,,,,,,,,,,,
AGE00147718,1880-01,34.85,5.72,125.0,"BISKRA, AG",,,,,3.0,",E",3.0,",E",0.0,",E",,,,,0.0,",",1.0,",E",,,,,,,18800112.0,",,E",,,,,,,18800129.0,",,E",,,0.0,",E,12,",,,,,21.7,",,E,29,",,,,,,,38.1,",,,E",,,,,,,4.08,",,,E",,,,,,,,,,,,,,,,,,,,,,,,,,,,,,,,,,,,,,,,,,,,,,,,,,
AGE00147719,1888-01,33.7997,2.89,767.0,"LAGHOUAT, AG",,,,,1.0,"2,E",0.0,"2,E",0.0,"2,E",,,,,0.0,"2,E",17.0,"2,E",0.0,"2,E",0.0,"2,E",0.0,"2,E",18880130.0,",2,E",,,,,,,18880109.0,",2,E",18880123.0,"+,2,E",-9.0,"2,E,30,",,,,,1.0,"2,,E,09,",20.0,"2,E,23,+",,,,,1.0,"2,,,E",,,7.84,"4,E",15.62,"2,,,E",0.07,"2,,,E",,,,,,,,,,,,,,,,,,,,,,,,,,,,,,,,,,,,,,,,,,,,,,,,,,
AGE00147720,1888-01,33.68,1.0,1320.0,"GERYVILLE EL BAYADH, AG",0.0,E,0.0,"2,E",3.0,"1,E",2.0,"1,E",0.0,"1,E",,,,,0.0,"1,E",11.0,"1,E",0.0,"1,E",1.0,"1,E",0.0,"1,E",18880125.0,",1,E",,,,,,,18880108.0,"+,1,E",18880102.0,",1,E",-10.0,"1,E,25,",,,,,8.0,"1,,E,08,+",25.0,"1,E,02,",,,332.9,"1,E",18.0,"1,,,E",,,6.84,"2,E",13.47,"1,,,E",0.22,"1,,,E",,,,,,,,,,,,,,,,,,,,,,,,,,,,,,,,,,,,,,,,,,,,,,,,,,
AGE00147780,1931-01,37.08,6.47,195.0,"SKIKDA CAP BOUGAROUNI, AG",,,,,,,,,,,,,,,0.0,"5,E",0.0,"5,E",0.0,"5,E",1.0,"5,E",0.0,"5,E",19310113.0,",5,E",,,,,,,,,19310103.0,",5,E",6.0,"5,E,13,",,,,,,,23.0,"5,E,03,",,,,,,,,,12.06,"8,E",14.31,"5,,,E",9.81,"5,,,E",,,,,,,,,,,,,,,,,,,,,,,,,,,,,,,,,,,,,,,,,,,,,,,,,,
AGE00147794,1926-09,36.78,5.1,225.0,"BEJAIA CAP CARBON, AG",,,170.7,"5,E",,,,,,,,,,,0.0,"2,E",0.0,"2,E",0.0,"3,E",27.0,"3,E",3.0,"3,E",19260930.0,",2,E",,,,,,,,,19260926.0,"+,3,E",16.0,"2,E,30,",,,,,,,36.0,"3,E,26,+",,,0.0,"3,E",,,,,24.98,"5,E",28.93,"3,,,E",21.04,"2,,,E",,,,,,,,,,,,,,,,,,,,,,,,,,,,,,,,,,,,,,,,,,,,,,,,,,
AGM00060351,1984-04,36.795,5.874,11.0,"JIJEL, AG",,,,,,,,,,,,,,,0.0,"5,S",0.0,"5,S",0.0,"5,S",1.0,"5,S",0.0,"5,S",19840409.0,",5,S",,,,,,,,,19840429.0,",5,S",8.9,"5,S,09,",,,,,,,23.4,"5,S,29,",,,,,,,,,15.06,"8,S",17.78,"5,,,S",12.34,"5,,,S",,,,,,,,,,,,,,,,,,,,,,,,,,,,,,,,,,,,,,,,,,,,,,,,,,
AGM00060353,2001-07,36.817,5.883,6.0,"JIJEL PORT, AG",,,181.8,"5,S",,,,,,,,,,,0.0,"3,S",0.0,"3,S",0.0,"5,S",26.0,"5,S",2.0,"5,S",20010720.0,",3,S",,,,,,,,,20010709.0,",5,S",17.4,"3,S,20,",,,,,,,38.3,"5,S,09,",0.0,S,0.0,"5,S",,,,,25.34,"5,S",29.55,"5,,,S",21.13,"3,,,S",,,,,,,,,,,,,,,,,,,,,,,,,,,,,,,,,,,,,,,,,,,,,,,,,,
AGM00060355,1966-03,36.933,6.95,7.0,"SKIKDA, AG",,,,,,,,,,,,,,,0.0,"3,S",0.0,"3,S",0.0,"4,S",2.0,"4,S",0.0,"4,S",19660331.0,"+,3,S",,,,,,,,,19660328.0,",4,S",3.9,"3,S,31,+",,,,,,,23.9,"4,S,28,",,,,,,,,,11.95,"6,S",16.23,"4,,,S",7.68,"3,,,S",,,,,,,,,,,,,,,,,,,,,,,,,,,,,,,,,,,,,,,,,,,,,,,,,,
AGM00060360,1957-07,36.822,7.809,4.9,"ANNABA, AG",,,148.3,"2,S",,,,,,,,,,,0.0,"1,S",0.0,"1,S",0.0,"1,S",30.0,"1,S",6.0,"1,S",19570721.0,",1,S",,,,,,,,,19570715.0,",1,S",13.9,"1,S,21,",,,,,,,33.9,"1,S,15,",0.0,S,0.0,"1,S",,,,,23.37,"2,S",29.15,"1,,,S",17.59,"1,,,S",,,,,,,,,,,,,,,,,,,,,,,,,,,,,,,,,,,,,,,,,,,,,,,,,,
AGM00060367,2003-02,36.9,8.45,13.0,"EL KALA, AG",,,,,,,,,,,,,,,0.0,"5,S",0.0,"5,S",,,,,,,20030202.0,",5,S",,,,,,,,,,,4.7,"5,S,02,",,,,,,,,,,,,,,,,,,,,,8.32,"5,,,S",,,,,,,,,,,,,,,,,,,,,,,,,,,,,,,,,,,,,,,,,,,,,,,,,,
AGM00060369,2001-07,36.767,3.1,12.0,"ALGER PORT, AG",,,,,,,,,,,,,,,0.0,"4,S",0.0,"4,S",,,,,,,20010703.0,",4,S",,,,,,,,,,,16.5,"4,S,03,",,,,,,,,,,,,,,,,,,,,,18.54,"4,,,S",,,,,,,,,,,,,,,,,,,,,,,,,,,,,,,,,,,,,,,,,,,,,,,,,,
AGM00060387,2003-03,36.917,3.95,8.0,"DELLYS, AG",,,0.0,"5,S",,,,,,,,,,,0.0,"4,S",0.0,"4,S",0.0,"2,S",1.0,"2,S",0.0,"2,S",20030321.0,",4,S",,,,,,,,,20030328.0,",2,S",7.2,"4,S,21,",,,,,,,22.2,"2,S,28,",,,113.1,"2,S",,,,,14.04,"5,S",17.24,"2,,,S",10.84,"4,,,S",,,,,,,,,,,,,,,,,,,,,,,,,,,,,,,,,,,,,,,,,,,,,,,,,,
AGM00060402,1973-03,36.712,5.07,6.1,"SOUMMAM, AG",,,0.0,"3,S",,,,,,,,,,,0.0,"2,S",0.0,"2,S",0.0,"3,S",1.0,"3,S",0.0,"3,S",19730315.0,"+,2,S",,,,,,,,,19730306.0,",3,S",3.0,"2,S,15,+",,,,,,,22.0,"3,S,06,",,,213.3,"3,S",,,,,10.7,"3,S",14.79,"3,,,S",6.62,"2,,,S",,,,,,,,,,,,,,,,,,,,,,,,,,,,,,,,,,,,,,,,,,,,,,,,,,
AGM00060403,2001-09,36.467,7.467,228.0,"GUELMA, AG",,,152.1,"5,S",,,,,,,,,,,0.0,"1,S",0.0,"1,S",0.0,"4,S",26.0,"4,S",9.0,"4,S",20010916.0,",1,S",,,,,,,,,20010904.0,",4,S",13.1,"1,S,16,",,,,,,,38.0,"4,S,04,",,,0.0,"4,S",,,,,24.42,"5,S",31.32,"4,,,S",17.53,"1,,,S",,,,,,,,,,,,,,,,,,,,,,,,,,,,,,,,,,,,,,,,,,,,,,,,,,
AGM00060405,2003-03,36.5,7.717,111.0,"BOUCHEGOUF, AG",,,,,,,,,,,,,,,,,,,0.0,"2,S",9.0,"2,S",0.0,"2,S",,,,,,,,,,,20030327.0,",2,S",,,,,,,,,27.0,"2,S,27,",,,,,,,,,,,19.79,"2,,,S",,,,,,,,,,,,,,,,,,,,,,,,,,,,,,,,,,,,,,,,,,,,,,,,,,,,
AGM00060410,2001-07,36.5,1.333,18.0,"TENES, AG",,,,,,,,,,,,,,,0.0,"5,S",0.0,"5,S",0.0,"5,S",26.0,"5,S",1.0,"5,S",20010702.0,",5,S",,,,,,,,,20010731.0,",5,S",18.6,"5,S,02,",,,,,,,34.6,"5,S,31,",,,,,,,,,25.28,"7,S",28.72,"5,,,S",21.85,"5,,,S",,,,,,,,,,,,,,,,,,,,,,,,,,,,,,,,,,,,,,,,,,,,,,,,,,
AGM00060415,2003-10,36.317,3.533,748.0,"AIN BESSAM, AG",,,,,,,,,,,,,,,,,,,0.0,"4,S",19.0,"4,S",2.0,"4,S",,,,,,,,,,,20031002.0,",4,S",,,,,,,,,36.0,"4,S,02,",,,,,,,,,,,22.93,"4,,,S",,,,,,,,,,,,,,,,,,,,,,,,,,,,,,,,,,,,,,,,,,,,,,,,,,,,
AGM00060417,2001-07,36.383,3.883,560.0,"BOUIRA, AG",,,248.8,"5,S",,,,,,,,,,,0.0,"4,S",0.0,"4,S",0.0,"5,S",26.0,"5,S",21.0,"5,S",20010720.0,",4,S",,,,,,,,,20010729.0,",5,S",14.0,"4,S,20,",,,,,,,42.5,"5,S,29,",0.0,S,0.0,"5,S",,,,,27.92,"5,S",35.93,"5,,,S",19.91,"4,,,S",,,,,,,,,,,,,,,,,,,,,,,,,,,,,,,,,,,,,,,,,,,,,,,,,,
AGM00060419,1966-02,36.276,6.62,690.4,"MOHAMED BOUDIAF INTERNATIONAL, AG",,,,,,,,,,,,,,,0.0,"4,S",2.0,"4,S",0.0,"4,S",9.0,"4,S",0.0,"4,S",19660225.0,",4,S",,,,,,,,,19660227.0,",4,S",-1.1,"4,S,25,",,,,,,,26.1,"4,S,27,",,,,,,,,,11.91,"7,S",18.91,"4,,,S",4.91,"4,,,S",,,,,,,,,,,,,,,,,,,,,,,,,,,,,,,,,,,,,,,,,,,,,,,,,,
AGM00060421,2001-07,35.867,7.117,891.0,"OUM EL BOUAGHI, AG",,,,,,,,,,,,,,,0.0,"5,S",0.0,"5,S",0.0,"2,S",29.0,"2,S",26.0,"2,S",20010721.0,",5,S",,,,,,,,,20010706.0,",2,S",13.0,"5,S,21,",,,,,,,42.7,"2,S,06,",,,,,,,,,27.74,"6,S",36.86,"2,,,S",18.62,"5,,,S",,,,,,,,,,,,,,,,,,,,,,,,,,,,,,,,,,,,,,,,,,,,,,,,,,
AGM00060423,2003-04,36.283,7.967,680.0,"SOUK AHRAS, AG",,,,,,,,,,,,,,,0.0,"5,S",1.0,"5,S",0.0,"4,S",10.0,"4,S",0.0,"4,S",20030424.0,",5,S",,,,,,,,,20030429.0,",4,S",0.0,"5,S,24,",,,,,,,31.7,"4,S,29,",,,,,,,,,14.07,"7,S",19.47,"4,,,S",8.67,"5,,,S",,,,,,,,,,,,,,,,,,,,,,,,,,,,,,,,,,,,,,,,,,,,,,,,,,
AGM00060425,1966-01,36.213,1.332,141.1,"ECH CHELIFF, AG",,,,,,,,,,,,,,,,,,,0.0,"4,S",4.0,"4,S",0.0,"4,S",,,,,,,,,,,19660131.0,"+,4,S",,,,,,,,,22.8,"4,S,31,+",,,,,,,,,,,18.13,"4,,,S",,,,,,,,,,,,,,,,,,,,,,,,,,,,,,,,,,,,,,,,,,,,,,,,,,,,
AGM00060430,1975-07,36.3,2.233,721.0,"MILIANA, AG",,,,,,,,,,,,,,,,,,,0.0,"5,S",26.0,"5,S",17.0,"5,S",,,,,,,,,,,19750717.0,"+,5,S",,,,,,,,,39.0,"5,S,17,+",,,,,,,,,,,33.58,"5,,,S",,,,,,,,,,,,,,,,,,,,,,,,,,,,,,,,,,,,,,,,,,,,,,,,,,,,
AGM00060437,2001-07,36.283,2.733,1036.0,"MEDEA, AG",,,,,,,,,,,,,,,0.0,"4,S",0.0,"4,S",0.0,"5,S",26.0,"5,S",10.0,"5,S",20010720.0,",4,S",,,,,,,,,20010731.0,",5,S",15.3,"4,S,20,",,,,,,,38.0,"5,S,31,",,,,,,,,,26.21,"6,S",31.1,"5,,,S",21.32,"4,,,S",,,,,,,,,,,,,,,,,,,,,,,,,,,,,,,,,,,,,,,,,,,,,,,,,,
AGM00060444,1980-08,36.067,4.767,930.0,"BORDJ BOU ARRERIDJ, AG",,,,,,,,,,,,,,,0.0,"5,S",0.0,"5,S",,,,,,,19800830.0,",5,S",,,,,,,,,,,12.0,"5,S,30,",,,,,,,,,,,,,,,,,,,,,17.81,"5,,,S",,,,,,,,,,,,,,,,,,,,,,,,,,,,,,,,,,,,,,,,,,,,,,,,,,
AGM00060445,1981-02,36.178,5.324,1050.0,"SETIF AIN ARNAT, AG",,,,,,,,,,,,,,,0.0,"4,S",7.0,"4,S",,,,,,,19810222.0,"+,4,S",,,,,,,,,,,-2.0,"4,S,22,+",,,,,,,,,,,,,,,,,,,,,2.38,"4,,,S",,,,,,,,,,,,,,,,,,,,,,,,,,,,,,,,,,,,,,,,,,,,,,,,,,
AGM00060452,2001-06,35.817,-0.267,4.0,"ARZEW, AG",,,,,,,,,,,,,,,,,,,0.0,"3,S",27.0,"3,S",1.0,"3,S",,,,,,,,,,,20010626.0,",3,S",,,,,,,,,36.6,"3,S,26,",,,,,,,,,,,26.15,"3,,,S",,,,,,,,,,,,,,,,,,,,,,,,,,,,,,,,,,,,,,,,,,,,,,,,,,,,
AGM00060457,1980-10,35.883,0.117,138.0,"MOSTAGANEM, AG",,,,,,,,,,,,,,,,,,,0.0,"4,S",18.0,"4,S",0.0,"4,S",,,,,,,,,,,19801006.0,",4,S",,,,,,,,,30.0,"4,S,06,",,,,,,,,,,,23.78,"4,,,S",,,,,,,,,,,,,,,,,,,,,,,,,,,,,,,,,,,,,,,,,,,,,,,,,,,,
AGM00060461,2001-09,35.7,-0.65,22.0,"ORAN PORT, AG",,,127.9,"5,S",,,,,,,,,,,0.0,"3,S",0.0,"3,S",0.0,"2,S",28.0,"2,S",0.0,"2,S",20010924.0,"+,3,S",,,,,,,,,20010923.0,",2,S",20.0,"3,S,24,+",,,,,,,28.2,"2,S,23,",,,0.0,"2,S",,,,,23.43,"5,S",24.96,"2,,,S",21.9,"3,,,S",,,,,,,,,,,,,,,,,,,,,,,,,,,,,,,,,,,,,,,,,,,,,,,,,,
AGM00060467,1981-04,35.667,4.5,442.0,"M SILA, AG",,,30.8,"5,S",,,,,,,,,,,0.0,"5,S",0.0,"5,S",0.0,"3,S",18.0,"3,S",0.0,"3,S",19810402.0,",5,S",,,,,,,,,19810410.0,",3,S",4.0,"5,S,02,",,,,,,,32.0,"3,S,10,",,,48.7,"3,S",,,,,17.59,"5,S",24.26,"3,,,S",10.92,"5,,,S",,,,,,,,,,,,,,,,,,,,,,,,,,,,,,,,,,,,,,,,,,,,,,,,,,
AGM00060468,1976-06,35.55,6.183,1052.0,"BATNA, AG",,,,,,,,,,,,,,,0.0,"5,S",0.0,"5,S",,,,,,,19760607.0,",5,S",,,,,,,,,,,4.0,"5,S,07,",,,,,,,,,,,,,,,,,,,,,12.28,"5,,,S",,,,,,,,,,,,,,,,,,,,,,,,,,,,,,,,,,,,,,,,,,,,,,,,,,
AGM00060471,2009-05,35.333,5.333,461.0,"BARIKA, AG",,,136.2,"2,S",4.0,",S",1.0,",S",0.0,",S",,,,,0.0,"1,S",0.0,"1,S",0.0,"1,S",29.0,"1,S",13.0,"1,S",20090517.0,",1,S",,,,,,,20090515.0,",,S",20090525.0,",1,S",7.2,"1,S,17,",,,,,7.1,",,S,15,",39.3,"1,S,25,",,,11.1,"1,S",8.9,",,,S",,,22.5,"2,S",30.63,"1,,,S",14.37,"1,,,S",,,,,,,,,,,,,,,,,,,,,,,,,,,,,,,,,,,,,,,,,,,,,,,,,,
AGM00060475,1979-11,35.432,8.121,811.1,"CHEIKH LARBI TEBESSI, AG",,,,,,,,,,,,,,,,,,,0.0,"5,S",2.0,"5,S",0.0,"5,S",,,,,,,,,,,19791110.0,"+,5,S",,,,,,,,,25.0,"5,S,10,+",,,,,,,,,,,14.24,"5,,,S",,,,,,,,,,,,,,,,,,,,,,,,,,,,,,,,,,,,,,,,,,,,,,,,,,,,
AGM00060476,2001-07,35.467,7.083,987.0,"KHENCHELLA, AG",,,,,,,,,,,,,,,0.0,"5,S",0.0,"5,S",,,,,,,20010721.0,",5,S",,,,,,,,,,,13.0,"5,S,21,",,,,,,,,,,,,,,,,,,,,,20.05,"5,,,S",,,,,,,,,,,,,,,,,,,,,,,,,,,,,,,,,,,,,,,,,,,,,,,,,,
AGM00060490,1957-07,35.624,-0.621,89.9,"ES SENIA, AG",,,169.5,"3,S",,,,,,,,,,,0.0,",S",0.0,",S",0.0,"3,S",28.0,"3,S",5.0,"3,S",19570701.0,",,S",,,,,,,,,19570719.0,"+,3,S",15.0,",S,01,",,,,,,,35.0,"3,S,19,+",0.0,S,0.0,"3,S",,,,,24.34,"3,S",30.16,"3,,,S",18.53,",,,S",,,,,,,,,,,,,,,,,,,,,,,,,,,,,,,,,,,,,,,,,,,,,,,,,,
AGM00060506,1981-03,35.6,0.3,476.0,"MASCARA MATEMORE, AG",,,,,,,,,,,,,,,0.0,"5,S",1.0,"5,S",0.0,"5,S",12.0,"5,S",0.0,"5,S",19810319.0,",5,S",,,,,,,,,19810325.0,"+,5,S",0.0,"5,S,19,",,,,,,,28.0,"5,S,25,+",,,,,,,,,14.13,"6,S",21.77,"5,,,S",6.5,"5,,,S",,,,,,,,,,,,,,,,,,,,,,,,,,,,,,,,,,,,,,,,,,,,,,,,,,
AGM00060507,1983-11,35.208,0.147,513.9,"GHRISS, AG",,,,,,,,,,,,,,,,,,,0.0,"3,S",17.0,"3,S",0.0,"3,S",,,,,,,,,,,19831105.0,",3,S",,,,,,,,,27.5,"3,S,05,",,,,,,,,,,,22.19,"3,,,S",,,,,,,,,,,,,,,,,,,,,,,,,,,,,,,,,,,,,,,,,,,,,,,,,,,,
AGM00060511,1985-06,35.341,1.463,989.1,"BOU CHEKIF, AG",,,,,,,,,,,,,,,,,,,0.0,"3,S",27.0,"3,S",10.0,"3,S",,,,,,,,,,,19850618.0,",3,S",,,,,,,,,36.7,"3,S,18,",,,,,,,,,,,30.4,"3,,,S",,,,,,,,,,,,,,,,,,,,,,,,,,,,,,,,,,,,,,,,,,,,,,,,,,,,
AGM00060514,2001-07,35.167,2.317,801.0,"KSAR CHELLALA, AG",,,,,,,,,,,,,,,0.0,"3,S",0.0,"3,S",,,,,,,20010720.0,",3,S",,,,,,,,,,,13.2,"3,S,20,",,,,,,,,,,,,,,,,,,,,,21.06,"3,,,S",,,,,,,,,,,,,,,,,,,,,,,,,,,,,,,,,,,,,,,,,,,,,,,,,,
AGM00060515,1984-04,35.333,4.206,459.0,"BOU SAADA, AG",,,,,,,,,,,,,,,0.0,"5,S",0.0,"5,S",,,,,,,19840419.0,",5,S",,,,,,,,,,,3.9,"5,S,19,",,,,,,,,,,,,,,,,,,,,,11.54,"5,,,S",,,,,,,,,,,,,,,,,,,,,,,,,,,,,,,,,,,,,,,,,,,,,,,,,,
AGM00060518,1980-12,35.3,-1.35,70.0,"BENI SAF, AG",,,,,,,,,,,,,,,,,,,0.0,"3,S",0.0,"3,S",0.0,"3,S",,,,,,,,,,,19801215.0,",3,S",,,,,,,,,19.0,"3,S,15,",,,,,,,,,,,14.93,"3,,,S",,,,,,,,,,,,,,,,,,,,,,,,,,,,,,,,,,,,,,,,,,,,,,,,,,,,
AGM00060520,2001-07,35.2,-0.617,476.0,"SIDI BEL ABBES, AG",,,,,,,,,,,,,,,,,,,0.0,"5,S",26.0,"5,S",20.0,"5,S",,,,,,,,,,,20010731.0,",5,S",,,,,,,,,44.9,"5,S,31,",,,,,,,,,,,35.12,"5,,,S",,,,,,,,,,,,,,,,,,,,,,,,,,,,,,,,,,,,,,,,,,,,,,,,,,,,
AGM00060522,1980-11,34.82,-1.77,426.0,"MAGHNIA, AG",,,,,,,,,,,,,,,,,,,0.0,"1,S",8.0,"1,S",0.0,"1,S",,,,,,,,,,,19801102.0,",1,S",,,,,,,,,28.0,"1,S,02,",,,,,,,,,,,19.21,"1,,,S",,,,,,,,,,,,,,,,,,,,,,,,,,,,,,,,,,,,,,,,,,,,,,,,,,,,
AGM00060531,1981-02,35.017,-1.45,248.1,"ZENATA, AG",,,,,,,,,,,,,,,0.0,"4,S",3.0,"4,S",0.0,"4,S",3.0,"4,S",0.0,"4,S",19810202.0,",4,S",,,,,,,,,19810227.0,",4,S",-2.0,"4,S,02,",,,,,,,26.0,"4,S,27,",,,,,,,,,10.56,"6,S",16.17,"4,,,S",4.96,"4,,,S",,,,,,,,,,,,,,,,,,,,,,,,,,,,,,,,,,,,,,,,,,,,,,,,,,
AGM00060535,1973-03,34.683,3.25,1144.0,"DJELFA TLETSI, AG",,,,,,,,,,,,,,,0.0,"4,S",11.0,"4,S",0.0,"5,S",0.0,"5,S",0.0,"5,S",19730301.0,",4,S",,,,,,,,,19730307.0,"+,5,S",-7.0,"4,S,01,",,,,,,,18.0,"5,S,07,+",,,,,,,,,6.5,"8,S",12.15,"5,,,S",0.85,"4,,,S",,,,,,,,,,,,,,,,,,,,,,,,,,,,,,,,,,,,,,,,,,,,,,,,,,
AGM00060536,1981-03,34.867,0.15,752.0,"SAIDA, AG",,,,,,,,,,,,,,,0.0,"4,S",0.0,"4,S",,,,,,,19810318.0,",4,S",,,,,,,,,,,1.0,"4,S,18,",,,,,,,,,,,,,,,,,,,,,6.52,"4,,,S",,,,,,,,,,,,,,,,,,,,,,,,,,,,,,,,,,,,,,,,,,,,,,,,,,
AGM00060540,1987-03,34.15,0.067,1001.0,"EL KHEITER, AG",,,,,,,,,,,,,,,,,,,0.0,"3,S",13.0,"3,S",0.0,"3,S",,,,,,,,,,,19870302.0,",3,S",,,,,,,,,26.1,"3,S,02,",,,,,,,,,,,19.43,"3,,,S",,,,,,,,,,,,,,,,,,,,,,,,,,,,,,,,,,,,,,,,,,,,,,,,,,,,
AGM00060549,1981-01,33.536,-0.242,1175.0,"MECHERIA, AG",,,,,,,,,,,,,,,,,,,0.0,"3,S",0.0,"3,S",0.0,"3,S",,,,,,,,,,,19810126.0,",3,S",,,,,,,,,16.0,"3,S,26,",,,,,,,,,,,11.0,"3,,,S",,,,,,,,,,,,,,,,,,,,,,,,,,,,,,,,,,,,,,,,,,,,,,,,,,,,
AGM00060550,1976-03,33.667,1.0,1347.0,"EL BAYADH, AG",,,,,,,,,,,,,,,,,,,0.0,"4,S",0.0,"4,S",0.0,"4,S",,,,,,,,,,,19760318.0,",4,S",,,,,,,,,17.0,"4,S,18,",,,,,,,,,,,11.07,"4,,,S",,,,,,,,,,,,,,,,,,,,,,,,,,,,,,,,,,,,,,,,,,,,,,,,,,,,
AGM00060555,1982-09,33.068,6.089,85.0,"SIDI MAHDI, AG",,,263.9,"4,S",,,,,,,,,,,0.0,"2,S",0.0,"2,S",0.0,"2,S",28.0,"2,S",23.0,"2,S",19820914.0,",2,S",,,,,,,,,19820901.0,",2,S",18.0,"2,S,14,",,,,,,,43.3,"2,S,01,",,,0.0,"2,S",,,,,28.52,"4,S",35.04,"2,,,S",22.0,"2,,,S",,,,,,,,,,,,,,,,,,,,,,,,,,,,,,,,,,,,,,,,,,,,,,,,,,
AGM00060557,2001-07,33.267,-0.3,1166.0,"NAAMA, AG",,,,,,,,,,,,,,,,,,,0.0,"4,S",27.0,"4,S",27.0,"4,S",,,,,,,,,,,20010712.0,"+,4,S",,,,,,,,,39.4,"4,S,12,+",,,,,,,,,,,37.24,"4,,,S",,,,,,,,,,,,,,,,,,,,,,,,,,,,,,,,,,,,,,,,,,,,,,,,,,,,
AGM00060559,1973-02,33.511,6.777,61.9,"GUEMAR, AG",,,,,,,,,,,,,,,0.0,"5,S",0.0,"5,S",0.0,"5,S",1.0,"5,S",0.0,"5,S",19730221.0,"+,5,S",,,,,,,,,19730226.0,",5,S",3.0,"5,S,21,+",,,,,,,23.0,"5,S,26,",,,,,,,,,11.07,"7,S",16.13,"5,,,S",6.0,"5,,,S",,,,,,,,,,,,,,,,,,,,,,,,,,,,,,,,,,,,,,,,,,,,,,,,,,
AGM00060560,1981-02,32.767,-0.6,1059.0,"AIN SEFRA, AG",,,0.0,"4,S",,,,,,,,,,,0.0,"3,S",10.0,"3,S",0.0,"2,S",1.0,"2,S",0.0,"2,S",19810202.0,"+,3,S",,,,,,,,,19810227.0,",2,S",-6.0,"3,S,02,+",,,,,,,22.0,"2,S,27,",,,256.5,"2,S",,,,,7.54,"4,S",13.88,"2,,,S",1.2,"3,,,S",,,,,,,,,,,,,,,,,,,,,,,,,,,,,,,,,,,,,,,,,,,,,,,,,,
AGM00060563,2001-12,32.933,3.283,764.0,"HASSIR MEL, AG",,,0.0,"5,S",,,,,,,,,,,0.0,"4,S",3.0,"4,S",0.0,"3,S",2.0,"3,S",0.0,"3,S",20011210.0,",4,S",,,,,,,,,20011201.0,",3,S",-2.0,"4,S,10,",,,,,,,21.7,"3,S,01,",,,226.0,"3,S",,,,,9.54,"5,S",15.08,"3,,,S",4.01,"4,,,S",,,,,,,,,,,,,,,,,,,,,,,,,,,,,,,,,,,,,,,,,,,,,,,,,,
AGM00060566,1973-02,32.384,3.794,460.9,"NOUMERAT, AG",,,,,,,,,,,,,,,0.0,"5,S",0.0,"5,S",0.0,"5,S",1.0,"5,S",0.0,"5,S",19730218.0,",5,S",,,,,,,,,19730226.0,",5,S",1.0,"5,S,18,",,,,,,,24.0,"5,S,26,",,,,,,,,,10.93,"9,S",15.78,"5,,,S",6.09,"5,,,S",,,,,,,,,,,,,,,,,,,,,,,,,,,,,,,,,,,,,,,,,,,,,,,,,,
AGM00060571,1957-07,31.646,-2.27,811.1,"BECHAR, AG",,,418.4,"3,S",,,,,,,,,,,0.0,"3,S",0.0,"3,S",0.0,"3,S",28.0,"3,S",28.0,"3,S",19570723.0,",3,S",,,,,,,,,19570727.0,"+,3,S",23.9,"3,S,23,",,,,,,,42.2,"3,S,27,+",0.0,S,0.0,"3,S",,,,,33.28,"3,S",39.07,"3,,,S",27.48,"3,,,S",,,,,,,,,,,,,,,,,,,,,,,,,,,,,,,,,,,,,,,,,,,,,,,,,,
AGM00060580,1957-07,31.917,5.413,150.0,"OUARGLA, AG",,,432.6,",S",,,,,,,,,,,0.0,",S",0.0,",S",0.0,",S",31.0,",S",31.0,",S",19570701.0,",,S",,,,,,,,,19570729.0,",,S",21.1,",S,01,",,,,,,,43.9,",S,29,",0.0,S,0.0,",S",,,,,32.29,",S",39.96,",,,S",24.61,",,,S",,,,,,,,,,,,,,,,,,,,,,,,,,,,,,,,,,,,,,,,,,,,,,,,,,
AGM00060581,1965-12,31.673,6.14,141.1,"OUED IRARA, AG",,,,,,,,,,,,,,,0.0,"5,S",0.0,"5,S",0.0,"4,S",10.0,"4,S",0.0,"4,S",19651223.0,"+,5,S",,,,,,,,,19651228.0,"+,4,S",2.8,"5,S,23,+",,,,,,,22.2,"4,S,28,+",,,,,,,,,12.46,"8,S",18.86,"4,,,S",6.05,"5,,,S",,,,,,,,,,,,,,,,,,,,,,,,,,,,,,,,,,,,,,,,,,,,,,,,,,
AGM00060602,1979-04,30.133,-2.167,505.0,"BENI ABBES, AG",,,,,,,,,,,,,,,0.0,"5,S",0.0,"5,S",,,,,,,19790402.0,",5,S",,,,,,,,,,,5.0,"5,S,02,",,,,,,,,,,,,,,,,,,,,,14.64,"5,,,S",,,,,,,,,,,,,,,,,,,,,,,,,,,,,,,,,,,,,,,,,,,,,,,,,,
AGM00060603,2007-10,29.717,6.7,252.0,"RHOURD NOUSS, AG",,,,,2.0,"3,S",1.0,"3,S",0.0,"3,S",,,,,0.0,"3,S",0.0,"3,S",,,,,,,20071022.0,",3,S",,,,,,,20071020.0,",3,S",,,11.0,"3,S,22,",,,,,5.1,"3,,S,20,",,,,,,,6.1,"3,,,S",,,,,,,18.8,"3,,,S",,,,,,,,,,,,,,,,,,,,,,,,,,,,,,,,,,,,,,,,,,,,,,,,,,
AGM00060607,1967-11,29.237,0.276,313.0,"TIMIMOUN, AG",,,,,,,,,,,,,,,0.0,"4,S",0.0,"4,S",,,,,,,19671129.0,",4,S",,,,,,,,,,,2.8,"4,S,29,",,,,,,,,,,,,,,,,,,,,,11.66,"4,,,S",,,,,,,,,,,,,,,,,,,,,,,,,,,,,,,,,,,,,,,,,,,,,,,,,,
AGM00060620,1973-02,27.838,-0.186,280.1,"TOUAT CHEIKH SIDI MOHAMED BEL, AG",,,,,,,,,,,,,,,0.0,"3,S",4.0,"3,S",0.0,"5,S",11.0,"5,S",0.0,"5,S",19730204.0,",3,S",,,,,,,,,19730227.0,",5,S",-1.0,"3,S,04,",,,,,,,29.0,"5,S,27,",,,,,,,,,13.29,"6,S",21.78,"5,,,S",4.8,"3,,,S",,,,,,,,,,,,,,,,,,,,,,,,,,,,,,,,,,,,,,,,,,,,,,,,,,
AGM00060630,1966-02,27.233,2.5,269.0,"IN SALAH, AG",,,55.9,"4,S",,,,,,,,,,,0.0,"3,S",0.0,"3,S",0.0,"3,S",25.0,"3,S",4.0,"3,S",19660209.0,",3,S",,,,,,,,,19660227.0,"+,3,S",7.8,"3,S,09,",,,,,,,33.9,"3,S,27,+",,,3.6,"3,S",,,,,20.48,"4,S",28.91,"3,,,S",12.04,"3,,,S",,,,,,,,,,,,,,,,,,,,,,,,,,,,,,,,,,,,,,,,,,,,,,,,,,
AGM00060640,1983-03,26.724,8.623,541.9,"ILLIZI TAKHAMALT, AG",,,,,,,,,,,,,,,0.0,"5,S",0.0,"5,S",0.0,"4,S",23.0,"4,S",3.0,"4,S",19830311.0,",5,S",,,,,,,,,19830325.0,",4,S",6.1,"5,S,11,",,,,,,,36.1,"4,S,25,",,,,,,,,,17.39,"6,S",25.17,"4,,,S",9.61,"5,,,S",,,,,,,,,,,,,,,,,,,,,,,,,,,,,,,,,,,,,,,,,,,,,,,,,,
AGM00060656,1957-07,27.7,-8.167,442.9,"TINDOUF, AG",,,526.2,",S",,,,,,,,,,,0.0,",S",0.0,",S",0.0,",S",31.0,",S",31.0,",S",19570703.0,",,S",,,,,,,,,19570727.0,"+,,S",21.1,",S,03,",,,,,,,46.1,",S,27,+",0.0,S,0.0,",S",,,,,35.31,",S",43.84,",,,S",26.77,",,,S",,,,,,,,,,,,,,,,,,,,,,,,,,,,,,,,,,,,,,,,,,,,,,,,,,
AGM00060670,1966-06,24.293,9.452,968.0,"TISKA, AG",,,,,,,,,,,,,,,0.0,"5,S",0.0,"5,S",,,,,,,19660606.0,",5,S",,,,,,,,,,,22.2,"5,S,06,",,,,,,,,,,,,,,,,,,,,,25.36,"5,,,S",,,,,,,,,,,,,,,,,,,,,,,,,,,,,,,,,,,,,,,,,,,,,,,,,,
AGM00060690,1993-06,19.567,5.767,401.0,"IN GUEZZAM, AG",,,,,,,,,,,,,,,0.0,"5,S",0.0,"5,S",,,,,,,19930602.0,",5,S",,,,,,,,,,,23.5,"5,S,02,",,,,,,,,,,,,,,,,,,,,,27.88,"5,,,S",,,,,,,,,,,,,,,,,,,,,,,,,,,,,,,,,,,,,,,,,,,,,,,,,,
AJ000037575,1936-01,41.55,46.667,490.0,"ZAKATALA, AJ",,,,,1.0,",I",1.0,",I",0.0,",I",,,,,,,,,,,,,,,,,,,,,,,19360116.0,",,I",,,,,,,,,3.1,",,I,16,",,,,,,,3.1,",,,I",,,,,,,,,,,,,,,,,,,,,,,,,,,,,,,,,,,,,,,,,,,,,,,,,,,,,,,,,,
AJ000037579,1936-01,41.7,46.8,1746.0,"ALIBEK, AJ",,,,,3.0,"1,I",0.0,"1,I",0.0,"1,I",,,,,,,,,,,,,,,,,,,,,,,19360126.0,"+,1,I",,,,,,,,,1.5,"1,,I,26,+",,,,,,,4.2,"1,,,I",,,,,,,,,,,,,,,,,,,,,,,,,,,,,,,,,,,,,,,,,,,,,,,,,,,,,,,,,,
AJ000037605,1977-01,41.3,45.6,440.0,"BOGDANOVKA, AJ",,,,,9.0,",I",2.0,",I",0.0,",I",,,,,,,,,,,,,,,,,,,,,,,19770108.0,",,I",,,,,,,,,3.7,",,I,08,",,,,,,,15.6,",,,I",,,,,,,,,,,,,,,,,,,,,,,,,,,,,,,,,,,,,,,,,,,,,,,,,,,,,,,,,,
AJ000037636,1977-01,41.3,45.5,404.0,"DJEYRANCELSKAJ STEP, AJ",,,,,16.0,",I",7.0,",I",0.0,",I",,,,,,,,,,,,,,,,,,,,,,,19770102.0,",,I",,,,,,,,,4.8,",,I,02,",,,,,,,34.4,",,,I",,,,,,,,,,,,,,,,,,,,,,,,,,,,,,,,,,,,,,,,,,,,,,,,,,,,,,,,,,
AJ000037639,1955-01,41.133,45.417,333.0,"AGSTAPHA AIRPORT, AJ",,,,,4.0,",I",1.0,",I",0.0,",I",,,,,,,,,,,,,,,,,,,,,,,19550102.0,",,I",,,,,,,,,5.6,",,I,02,",,,,,,,8.6,",,,I",,,,,,,,,,,,,,,,,,,,,,,,,,,,,,,,,,,,,,,,,,,,,,,,,,,,,,,,,,
AJ000037656,1977-01,41.2,46.8,403.0,"ADJINAURSKAYA STEP, AJ",,,,,16.0,",I",5.0,",I",0.0,",I",,,,,,,,,,,,,,,,,,,,,,,19770107.0,",,I",,,,,,,,,12.1,",,I,07,",,,,,,,38.7,",,,I",,,,,,,,,,,,,,,,,,,,,,,,,,,,,,,,,,,,,,,,,,,,,,,,,,,,,,,,,,
AJ000037661,1936-01,41.217,47.167,641.0,"SHAKI, AJ",,,,,2.0,"2,I",1.0,"2,I",0.0,"2,I",,,,,,,,,,,,,,,,,,,,,,,19360117.0,",2,I",,,,,,,,,2.9,"2,,I,17,",,,,,,,4.1,"2,,,I",,,,,,,,,,,,,,,,,,,,,,,,,,,,,,,,,,,,,,,,,,,,,,,,,,,,,,,,,,
AJ000037668,1964-01,41.1,47.5,583.0,"VARTASHEN, AJ",,,,,9.0,",I",3.0,",I",0.0,",I",,,,,,,,,,,,,,,,,,,,,,,19640117.0,",,I",,,,,,,,,20.9,",,I,17,",,,,,,,42.0,",,,I",,,,,,,,,,,,,,,,,,,,,,,,,,,,,,,,,,,,,,,,,,,,,,,,,,,,,,,,,,
AJ000037673,1955-02,41.5,48.8,27.0,"HACMAS, AJ",,,,,1.0,"3,I",1.0,"3,I",0.0,"3,I",,,,,,,,,,,,,,,,,,,,,,,19550228.0,",3,I",,,,,,,,,6.3,"3,,I,28,",,,,,,,6.9,"3,,,I",,,,,,,,,,,,,,,,,,,,,,,,,,,,,,,,,,,,,,,,,,,,,,,,,,,,,,,,,,
AJ000037674,1966-01,41.2,48.2,999.0,"KRIC, AJ",,,,,5.0,",I",2.0,",I",0.0,",I",,,,,,,,,,,,,,,,,,,,,,,19660111.0,",,I",,,,,,,,,7.9,",,I,11,",,,,,,,15.0,",,,I",,,,,,,,,,,,,,,,,,,,,,,,,,,,,,,,,,,,,,,,,,,,,,,,,,,,,,,,,,
AJ000037675,1936-01,41.367,48.517,552.0,"GUBA, AJ",,,,,4.0,"3,I",2.0,"3,I",0.0,"3,I",,,,,,,,,,,,,,,,,,,,,,,19360125.0,",3,I",,,,,,,,,7.5,"3,,I,25,",,,,,,,12.8,"3,,,I",,,,,,,,,,,,,,,,,,,,,,,,,,,,,,,,,,,,,,,,,,,,,,,,,,,,,,,,,,
AJ000037679,1959-07,41.1,49.2,-26.0,"SIASAN, AJ",,,,,4.0,"1,I",0.0,"1,I",0.0,"1,I",,,,,,,,,,,,,,,,,,,,,,,19590722.0,"+,1,I",,,,,,,,,1.7,"1,,I,22,+",,,,,,,4.0,"1,,,I",,,,,,,,,,,,,,,,,,,,,,,,,,,,,,,,,,,,,,,,,,,,,,,,,,,,,,,,,,
AJ000037729,1936-02,40.7,45.8,1476.0,"KEDABEK, AJ",,,,,8.0,",I",1.0,",I",0.0,",I",,,,,,,,,,,,,,,,,,,,,,,19360211.0,",,I",,,,,,,,,6.8,",,I,11,",,,,,,,15.1,",,,I",,,,,,,,,,,,,,,,,,,,,,,,,,,,,,,,,,,,,,,,,,,,,,,,,,,,,,,,,,
AJ000037734,1936-02,40.8,46.0,404.0,"SHAMHOR, AJ",,,,,5.0,"1,I",1.0,"1,I",0.0,"1,I",,,,,,,,,,,,,,,,,,,,,,,19360208.0,",1,I",,,,,,,,,2.6,"1,,I,08,",,,,,,,7.2,"1,,,I",,,,,,,,,,,,,,,,,,,,,,,,,,,,,,,,,,,,,,,,,,,,,,,,,,,,,,,,,,
AJ000037735,1882-01,40.7167,46.4167,311.0,"GANCA, AJ",,,,,2.0,",r",0.0,",r",0.0,",r",,,,,,,,,,,,,,,,,,,,,,,18820116.0,",,r",,,,,,,,,1.0,",,r,16,",,,,,,,1.5,",,,r",,,,,,,,,,,,,,,,,,,,,,,,,,,,,,,,,,,,,,,,,,,,,,,,,,,,,,,,,,
AJ000037740,1936-06,40.983,47.867,682.0,"QABALA, AJ",,,,,8.0,",I",7.0,",I",0.0,",I",,,,,,,,,,,,,,,,,,,,,,,19360612.0,",,I",,,,,,,,,24.0,",,I,12,",,,,,,,73.0,",,,I",,,,,,,,,,,,,,,,,,,,,,,,,,,,,,,,,,,,,,,,,,,,,,,,,,,,,,,,,,
AJ000037742,1955-01,40.9,47.3,313.0,"ORDJONIKIDZE ZERNOSOVHOZ, AJ",,,,,5.0,"5,I",2.0,"5,I",0.0,"5,I",,,,,,,,,,,,,,,,,,,,,,,19550117.0,",5,I",,,,,,,,,9.2,"5,,I,17,",,,,,,,15.8,"5,,,I",,,,,,,,,,,,,,,,,,,,,,,,,,,,,,,,,,,,,,,,,,,,,,,,,,,,,,,,,,
AJ000037744,1956-01,40.767,47.05,94.0,"MINGACHEVIR, AJ",,,,,4.0,"1,I",2.0,"1,I",0.0,"1,I",,,,,,,,,,,,,,,,,,,,,,,19560130.0,",1,I",,,,,,,,,6.4,"1,,I,30,",,,,,,,10.8,"1,,,I",,,,,,,,,,,,,,,,,,,,,,,,,,,,,,,,,,,,,,,,,,,,,,,,,,,,,,,,,,
AJ000037747,1955-01,40.617,47.15,15.0,"EVLAKH AIRPORT, AJ",,,,,5.0,",I",3.0,",I",0.0,",I",,,,,,,,,,,,,,,,,,,,,,,19550101.0,",,I",,,,,,,,,7.8,",,I,01,",,,,,,,19.7,",,,I",,,,,,,,,,,,,,,,,,,,,,,,,,,,,,,,,,,,,,,,,,,,,,,,,,,,,,,,,,
AJ000037749,1936-01,40.65,47.75,95.0,"GOYCHAY, AJ",,,,,0.0,"2,I",0.0,"2,I",0.0,"2,I",,,,,,,,,,,,,,,,,,,,,,,19360123.0,",2,I",,,,,,,,,0.0,"2,T,I,23,",,,,,,,0.0,"2,T,,I",,,,,,,,,,,,,,,,,,,,,,,,,,,,,,,,,,,,,,,,,,,,,,,,,,,,,,,,,,
AJ000037753,1960-07,40.867,48.933,1082.0,"ALTIAGACH, AJ",,,,,6.0,"1,I",2.0,"1,I",1.0,"1,I",,,,,,,,,,,,,,,,,,,,,,,19600721.0,",1,I",,,,,,,,,35.1,"1,,I,21,",,,,,,,40.7,"1,,,I",,,,,,,,,,,,,,,,,,,,,,,,,,,,,,,,,,,,,,,,,,,,,,,,,,,,,,,,,,
AJ000037756,1955-01,40.533,48.933,755.0,"MARAZA, AJ",,,,,6.0,",I",4.0,",I",0.0,",I",,,,,,,,,,,,,,,,,,,,,,,19550105.0,",,I",,,,,,,,,5.8,",,I,05,",,,,,,,15.7,",,,I",,,,,,,,,,,,,,,,,,,,,,,,,,,,,,,,,,,,,,,,,,,,,,,,,,,,,,,,,,
AJ000037759,1936-01,40.633,48.633,892.0,"SHAMAKHY, AJ",,,,,4.0,"2,I",2.0,"2,I",0.0,"2,I",,,,,,,,,,,,,,,,,,,,,,,19360126.0,",2,I",,,,,,,,,4.4,"2,,I,26,",,,,,,,9.8,"2,,,I",,,,,,,,,,,,,,,,,,,,,,,,,,,,,,,,,,,,,,,,,,,,,,,,,,,,,,,,,,
AJ000037769,1955-01,40.6,49.633,-19.0,"SUMGAIT, AJ",,,,,3.0,",I",0.0,",I",0.0,",I",,,,,,,,,,,,,,,,,,,,,,,19550105.0,",,I",,,,,,,,,1.9,",,I,05,",,,,,,,3.6,",,,I",,,,,,,,,,,,,,,,,,,,,,,,,,,,,,,,,,,,,,,,,,,,,,,,,,,,,,,,,,
AJ000037813,1955-10,40.3,45.9,12.0,"GEYGEL, AJ",,,,,8.0,"1,I",5.0,"1,I",0.0,"1,I",,,,,,,,,,,,,,,,,,,,,,,19551006.0,",1,I",,,,,,,,,11.6,"1,,I,06,",,,,,,,33.8,"1,,,I",,,,,,,,,,,,,,,,,,,,,,,,,,,,,,,,,,,,,,,,,,,,,,,,,,,,,,,,,,
AJ000037816,1963-03,40.5,46.1,1655.0,"DASHKESAN, AJ",,,,,10.0,",I",7.0,",I",0.0,",I",,,,,,,,,,,,,,,,,,,,,,,19630318.0,",,I",,,,,,,,,12.9,",,I,18,",,,,,,,47.9,",,,I",,,,,,,,,,,,,,,,,,,,,,,,,,,,,,,,,,,,,,,,,,,,,,,,,,,,,,,,,,
AJ000037825,1955-01,40.4,46.3,1612.0,"GEYGEL KURORT, AJ",,,,,6.0,"1,I",5.0,"1,I",0.0,"1,I",,,,,,,,,,,,,,,,,,,,,,,19550117.0,",1,I",,,,,,,,,9.9,"1,,I,17,",,,,,,,35.3,"1,,,I",,,,,,,,,,,,,,,,,,,,,,,,,,,,,,,,,,,,,,,,,,,,,,,,,,,,,,,,,,
AJ000037831,1955-01,40.4,47.0,160.0,"MIR BASHIR, AJ",,,,,4.0,"1,I",3.0,"1,I",0.0,"1,I",,,,,,,,,,,,,,,,,,,,,,,19550101.0,",1,I",,,,,,,,,15.6,"1,,I,01,",,,,,,,24.5,"1,,,I",,,,,,,,,,,,,,,,,,,,,,,,,,,,,,,,,,,,,,,,,,,,,,,,,,,,,,,,,,
AJ000037832,1981-01,40.4,47.1,69.0,"BARDA, AJ",,,,,3.0,",I",0.0,",I",0.0,",I",,,,,,,,,,,,,,,,,,,,,,,19810124.0,",,I",,,,,,,,,1.2,",,I,24,",,,,,,,2.2,",,,I",,,,,,,,,,,,,,,,,,,,,,,,,,,,,,,,,,,,,,,,,,,,,,,,,,,,,,,,,,
AJ000037835,1955-03,40.2,47.7,-5.0,"ZARDOB, AJ",,,,,9.0,",I",3.0,",I",0.0,",I",,,,,,,,,,,,,,,,,,,,,,,19550305.0,",,I",,,,,,,,,16.1,",,I,05,",,,,,,,35.5,",,,I",,,,,,,,,,,,,,,,,,,,,,,,,,,,,,,,,,,,,,,,,,,,,,,,,,,,,,,,,,
AJ000037844,1936-01,40.333,48.167,4.0,"KURDAMIR, AJ",,,,,3.0,"1,I",0.0,"1,I",0.0,"1,I",,,,,,,,,,,,,,,,,,,,,,,19360121.0,",1,I",,,,,,,,,1.7,"1,,I,21,",,,,,,,2.4,"1,,,I",,,,,,,,,,,,,,,,,,,,,,,,,,,,,,,,,,,,,,,,,,,,,,,,,,,,,,,,,,
AJ000037849,1936-01,40.017,48.917,-5.0,"GAZIMAMMAD AERODROM, AJ",,,,,6.0,",I",0.0,",I",0.0,",I",,,,,,,,,,,,,,,,,,,,,,,19360125.0,",,I",,,,,,,,,2.3,",,I,25,",,,,,,,9.2,",,,I",,,,,,,,,,,,,,,,,,,,,,,,,,,,,,,,,,,,,,,,,,,,,,,,,,,,,,,,,,
AJ000037850,1881-08,40.4,49.8,47.0,"BAKU, AJ",,,,,2.0,",I",0.0,",I",0.0,",I",,,,,,,,,,,,,,,,,,,,,,,18810825.0,",,I",,,,,,,,,0.7,",,I,25,",,,,,,,1.0,",,,I",,,,,,,,,,,,,,,,,,,,,,,,,,,,,,,,,,,,,,,,,,,,,,,,,,,,,,,,,,
AJ000037860,1955-04,40.533,50.0,28.0,"MASHTAGA, AJ",,,,,7.0,"4,I",2.0,"4,I",1.0,"4,I",,,,,,,,,,,,,,,,,,,,,,,19550410.0,",4,I",,,,,,,,,28.4,"4,,I,10,",,,,,,,41.3,"4,,,I",,,,,,,,,,,,,,,,,,,,,,,,,,,,,,,,,,,,,,,,,,,,,,,,,,,,,,,,,,
AJ000037861,1955-01,40.2,50.9,-15.0,"NEFT JNIE, AJ",,,,,2.0,"1,I",0.0,"1,I",0.0,"1,I",,,,,,,,,,,,,,,,,,,,,,,19550101.0,",1,I",,,,,,,,,2.2,"1,,I,01,",,,,,,,3.0,"1,,,I",,,,,,,,,,,,,,,,,,,,,,,,,,,,,,,,,,,,,,,,,,,,,,,,,,,,,,,,,,
AJ000037866,1955-01,40.467,50.317,-24.0,"PIRALLAHI, AJ",,,,,3.0,"1,I",1.0,"1,I",0.0,"1,I",,,,,,,,,,,,,,,,,,,,,,,19550109.0,",1,I",,,,,,,,,4.2,"1,,I,09,",,,,,,,5.8,"1,,,I",,,,,,,,,,,,,,,,,,,,,,,,,,,,,,,,,,,,,,,,,,,,,,,,,,,,,,,,,,
AJ000037869,1936-01,40.3,50.6,-17.0,"JILOY OSTROV, AJ",,,,,3.0,"3,I",1.0,"3,I",0.0,"3,I",,,,,,,,,,,,,,,,,,,,,,,19360106.0,",3,I",,,,,,,,,2.7,"3,,I,06,",,,,,,,3.9,"3,,,I",,,,,,,,,,,,,,,,,,,,,,,,,,,,,,,,,,,,,,,,,,,,,,,,,,,,,,,,,,
AJ000037883,1955-01,39.9,45.9,2064.0,"ISTISU, AJ",,,,,6.0,"1,I",1.0,"1,I",0.0,"1,I",,,,,,,,,,,,,,,,,,,,,,,19550102.0,",1,I",,,,,,,,,6.3,"1,,I,02,",,,,,,,13.8,"1,,,I",,,,,,,,,,,,,,,,,,,,,,,,,,,,,,,,,,,,,,,,,,,,,,,,,,,,,,,,,,
AJ000037888,1955-01,39.5,45.8,3282.0,"SISIANSKIY PEREVAL, AJ",,,,,9.0,"1,I",2.0,"1,I",0.0,"1,I",,,,,,,,,,,,,,,,,,,,,,,19550117.0,",1,I",,,,,,,,,19.1,"1,,I,17,",,,,,,,28.9,"1,,,I",,,,,,,,,,,,,,,,,,,,,,,,,,,,,,,,,,,,,,,,,,,,,,,,,,,,,,,,,,
AJ000037893,1936-01,39.9,46.9,352.0,"AGDAM, AJ",,,,,0.0,",I",0.0,",I",0.0,",I",,,,,,,,,,,,,,,,,,,,,,,19360125.0,",,I",,,,,,,,,0.1,",,I,25,",,,,,,,0.1,",,,I",,,,,,,,,,,,,,,,,,,,,,,,,,,,,,,,,,,,,,,,,,,,,,,,,,,,,,,,,,
AJ000037895,1936-01,39.983,46.75,828.0,"KHANKANDY, AJ",,,,,1.0,"1,I",0.0,"1,I",0.0,"1,I",,,,,,,,,,,,,,,,,,,,,,,19360131.0,",1,I",,,,,,,,,0.5,"1,,I,31,",,,,,,,0.6,"1,,,I",,,,,,,,,,,,,,,,,,,,,,,,,,,,,,,,,,,,,,,,,,,,,,,,,,,,,,,,,,
AJ000037898,1936-01,39.7,46.5,1152.0,"LACHIN, AJ",,,,,3.0,",I",0.0,",I",0.0,",I",,,,,,,,,,,,,,,,,,,,,,,19360114.0,",,I",,,,,,,,,1.9,",,I,14,",,,,,,,3.7,",,,I",,,,,,,,,,,,,,,,,,,,,,,,,,,,,,,,,,,,,,,,,,,,,,,,,,,,,,,,,,
AJ000037899,1936-01,39.767,46.75,1355.0,"SHUSHA, AJ",,,,,2.0,"1,I",0.0,"1,I",0.0,"1,I",,,,,,,,,,,,,,,,,,,,,,,19360114.0,"+,1,I",,,,,,,,,0.5,"1,,I,14,+",,,,,,,1.2,"1,,,I",,,,,,,,,,,,,,,,,,,,,,,,,,,,,,,,,,,,,,,,,,,,,,,,,,,,,,,,,,
AJ000037901,1959-11,39.8,47.1,414.0,"MARTUNY, AJ",,,,,13.0,"4,I",6.0,"4,I",1.0,"4,I",,,,,,,,,,,,,,,,,,,,,,,19591119.0,",4,I",,,,,,,,,31.0,"4,,I,19,",,,,,,,78.0,"4,,,I",,,,,,,,,,,,,,,,,,,,,,,,,,,,,,,,,,,,,,,,,,,,,,,,,,,,,,,,,,
AJ000037902,1966-03,39.8,47.5,157.0,"MOL SKAYA STEP, AJ",,,,,9.0,",I",4.0,",I",1.0,",I",,,,,,,,,,,,,,,,,,,,,,,19660320.0,",,I",,,,,,,,,29.3,",,I,20,",,,,,,,74.9,",,,I",,,,,,,,,,,,,,,,,,,,,,,,,,,,,,,,,,,,,,,,,,,,,,,,,,,,,,,,,,
AJ000037905,1936-02,39.767,47.75,71.0,"BEYLAGAN AERODROME, AJ",,,,,3.0,"3,I",0.0,"3,I",0.0,"3,I",,,,,,,,,,,,,,,,,,,,,,,19360222.0,",3,I",,,,,,,,,2.0,"3,,I,22,",,,,,,,4.5,"3,,,I",,,,,,,,,,,,,,,,,,,,,,,,,,,,,,,,,,,,,,,,,,,,,,,,,,,,,,,,,,
AJ000037907,1936-01,39.6,47.15,439.0,"FIZULY, AJ",,,,,1.0,"3,I",0.0,"3,I",0.0,"3,I",,,,,,,,,,,,,,,,,,,,,,,19360109.0,",3,I",,,,,,,,,0.4,"3,,I,09,",,,,,,,0.4,"3,,,I",,,,,,,,,,,,,,,,,,,,,,,,,,,,,,,,,,,,,,,,,,,,,,,,,,,,,,,,,,
AJ000037912,1955-01,39.9,48.5,-16.0,"DJAFARHAN, AJ",,,,,2.0,",I",1.0,",I",0.0,",I",,,,,,,,,,,,,,,,,,,,,,,19550101.0,",,I",,,,,,,,,7.8,",,I,01,",,,,,,,9.9,",,,I",,,,,,,,,,,,,,,,,,,,,,,,,,,,,,,,,,,,,,,,,,,,,,,,,,,,,,,,,,
AJ000037913,1936-01,39.6,48.9,-20.0,"SAL JNY, AJ",,,,,6.0,",I",1.0,",I",0.0,",I",,,,,,,,,,,,,,,,,,,,,,,19360131.0,",,I",,,,,,,,,4.0,",,I,31,",,,,,,,10.0,",,,I",,,,,,,,,,,,,,,,,,,,,,,,,,,,,,,,,,,,,,,,,,,,,,,,,,,,,,,,,,
AJ000037914,1955-01,39.9,48.0,-1.0,"IMISLY, AJ",,,,,4.0,"2,I",1.0,"2,I",0.0,"2,I",,,,,,,,,,,,,,,,,,,,,,,19550101.0,",2,I",,,,,,,,,6.9,"2,,I,01,",,,,,,,8.8,"2,,,I",,,,,,,,,,,,,,,,,,,,,,,,,,,,,,,,,,,,,,,,,,,,,,,,,,,,,,,,,,
AJ000037922,1955-01,39.8,49.6,-25.0,"SVINOY OSTROV, AJ",,,,,4.0,"1,I",2.0,"1,I",0.0,"1,I",,,,,,,,,,,,,,,,,,,,,,,19550105.0,",1,I",,,,,,,,,4.0,"1,,I,05,",,,,,,,10.5,"1,,,I",,,,,,,,,,,,,,,,,,,,,,,,,,,,,,,,,,,,,,,,,,,,,,,,,,,,,,,,,,
AJ000037923,1936-01,39.967,49.4,-16.0,"ALAT, AJ",,,,,4.0,",I",0.0,",I",0.0,",I",,,,,,,,,,,,,,,,,,,,,,,19360125.0,",,I",,,,,,,,,1.1,",,I,25,",,,,,,,3.8,",,,I",,,,,,,,,,,,,,,,,,,,,,,,,,,,,,,,,,,,,,,,,,,,,,,,,,,,,,,,,,
AJ000037925,1960-06,39.4,49.25,-24.0,"NEFTCHALA, AJ",,,,,2.0,",I",0.0,",I",0.0,",I",,,,,,,,,,,,,,,,,,,,,,,19600621.0,",,I",,,,,,,,,0.8,",,I,21,",,,,,,,1.5,",,,I",,,,,,,,,,,,,,,,,,,,,,,,,,,,,,,,,,,,,,,,,,,,,,,,,,,,,,,,,,
AJ000037936,1925-09,39.2,45.417,885.0,"NAXCIVAN, AJ",,,,,1.0,",I",1.0,",I",0.0,",I",,,,,,,,,,,,,,,,,,,,,,,19250922.0,",,I",,,,,,,,,24.0,",,I,22,",,,,,,,24.0,",,,I",,,,,,,,,,,,,,,,,,,,,,,,,,,,,,,,,,,,,,,,,,,,,,,,,,,,,,,,,,
AJ000037941,1939-01,39.4,45.6,1205.0,"SAHBUZ, AJ",,,,,2.0,"2,I",2.0,"2,I",0.0,"2,I",,,,,,,,,,,,,,,,,,,,,,,19390103.0,",2,I",,,,,,,,,5.7,"2,,I,03,",,,,,,,9.2,"2,,,I",,,,,,,,,,,,,,,,,,,,,,,,,,,,,,,,,,,,,,,,,,,,,,,,,,,,,,,,,,
AJ000037946,1977-02,39.1,46.0,3268.0,"PARAGACHAY, AJ",,,,,4.0,",I",2.0,",I",0.0,",I",,,,,,,,,,,,,,,,,,,,,,,19770205.0,",,I",,,,,,,,,8.8,",,I,05,",,,,,,,16.1,",,,I",,,,,,,,,,,,,,,,,,,,,,,,,,,,,,,,,,,,,,,,,,,,,,,,,,,,,,,,,,
AJ000037947,1936-08,38.95,45.633,717.0,"JULFA, AJ",,,,,1.0,"1,I",1.0,"1,I",0.0,"1,I",,,,,,,,,,,,,,,,,,,,,,,19360801.0,",1,I",,,,,,,,,5.3,"1,,I,01,",,,,,,,5.3,"1,,,I",,,,,,,,,,,,,,,,,,,,,,,,,,,,,,,,,,,,,,,,,,,,,,,,,,,,,,,,,,
AJ000037957,1936-01,38.917,46.017,787.0,"ORDUBAD, AJ",,,,,2.0,"5,I",2.0,"5,I",0.0,"5,I",,,,,,,,,,,,,,,,,,,,,,,19360131.0,",5,I",,,,,,,,,6.3,"5,,I,31,",,,,,,,9.0,"5,,,I",,,,,,,,,,,,,,,,,,,,,,,,,,,,,,,,,,,,,,,,,,,,,,,,,,,,,,,,,,
AJ000037962,1955-01,39.4,47.0,632.0,"DJEBRAIL, AJ",,,,,3.0,"1,I",2.0,"1,I",0.0,"1,I",,,,,,,,,,,,,,,,,,,,,,,19550125.0,",1,I",,,,,,,,,10.1,"1,,I,25,",,,,,,,16.2,"1,,,I",,,,,,,,,,,,,,,,,,,,,,,,,,,,,,,,,,,,,,,,,,,,,,,,,,,,,,,,,,
AJ000037968,1961-11,39.0,46.7,313.0,"MINDJEVAN, AJ",,,,,1.0,"2,I",0.0,"2,I",0.0,"2,I",,,,,,,,,,,,,,,,,,,,,,,19611122.0,",2,I",,,,,,,,,1.5,"2,,I,22,",,,,,,,1.5,"2,,,I",,,,,,,,,,,,,,,,,,,,,,,,,,,,,,,,,,,,,,,,,,,,,,,,,,,,,,,,,,
AJ000037972,1936-01,39.467,48.55,3.0,"BILASUVAR, AJ",,,,,5.0,",I",3.0,",I",0.0,",I",,,,,,,,,,,,,,,,,,,,,,,19360131.0,",,I",,,,,,,,,4.8,",,I,31,",,,,,,,12.8,",,,I",,,,,,,,,,,,,,,,,,,,,,,,,,,,,,,,,,,,,,,,,,,,,,,,,,,,,,,,,,
AJ000037978,1955-01,39.7,48.6,2.0,"GYOYTAPA, AJ",,,,,6.0,"1,I",2.0,"1,I",0.0,"1,I",,,,,,,,,,,,,,,,,,,,,,,19550125.0,",1,I",,,,,,,,,8.9,"1,,I,25,",,,,,,,19.2,"1,,,I",,,,,,,,,,,,,,,,,,,,,,,,,,,,,,,,,,,,,,,,,,,,,,,,,,,,,,,,,,
AJ000037981,1959-07,38.9,48.2,794.0,"JARDIMLY, AJ",,,,,1.0,",I",0.0,",I",0.0,",I",,,,,,,,,,,,,,,,,,,,,,,19590723.0,",,I",,,,,,,,,1.2,",,I,23,",,,,,,,1.2,",,,I",,,,,,,,,,,,,,,,,,,,,,,,,,,,,,,,,,,,,,,,,,,,,,,,,,,,,,,,,,
AJ000037984,1937-09,38.767,48.4,1113.0,"LERIK, AJ",,,,,3.0,",I",3.0,",I",1.0,",I",,,,,,,,,,,,,,,,,,,,,,,19370908.0,",,I",,,,,,,,,29.2,",,I,08,",,,,,,,41.2,",,,I",,,,,,,,,,,,,,,,,,,,,,,,,,,,,,,,,,,,,,,,,,,,,,,,,,,,,,,,,,
AJ000037985,1897-05,38.75,48.817,-12.0,"LANKARAN, AJ",,,,,10.0,",I",4.0,",I",1.0,",I",,,,,,,,,,,,,,,,,,,,,,,18970518.0,",,I",,,,,,,,,40.0,",,I,18,",,,,,,,55.4,",,,I",,,,,,,,,,,,,,,,,,,,,,,,,,,,,,,,,,,,,,,,,,,,,,,,,,,,,,,,,,
AJ000037989,1936-01,38.5,48.9,-22.0,"ASTARA, AJ",,,,,5.0,",I",2.0,",I",0.0,",I",,,,,,,,,,,,,,,,,,,,,,,19360131.0,",,I",,,,,,,,,6.2,",,I,31,",,,,,,,14.0,",,,I",,,,,,,,,,,,,,,,,,,,,,,,,,,,,,,,,,,,,,,,,,,,,,,,,,,,,,,,,,
ALE00100939,1940-04,41.3331,19.7831,89.0,"TIRANA, AL",,,,,,,,,,,,,,,,,,,0.0,",E",7.0,",E",0.0,",E",,,,,,,,,,,19400424.0,",,E",,,,,,,,,27.0,",E,24,",,,,,,,,,,,18.16,",,,E",,,,,,,,,,,,,,,,,,,,,,,,,,,,,,,,,,,,,,,,,,,,,,,,,,,,
ALE00108905,1951-01,42.1,19.5331,43.0,"SHKODRA, AL",,,,,12.0,",E",9.0,",E",1.0,",E",,,,,,,,,0.0,",E",0.0,",E",0.0,",E",,,,,,,,,19510126.0,",,E",19510129.0,",,E",,,,,,,32.3,",,E,26,",14.5,",E,29,",,,,,104.6,",,,E",,,,,10.53,",,,E",,,,,,,,,,,,,,,,,,,,,,,,,,,,,,,,,,,,,,,,,,,,,,,,,,,,
ALM00013615,1979-05,41.415,19.721,38.4,"TIRANA RINAS, AL",,,,,,,,,,,,,,,,,,,0.0,"4,S",25.0,"4,S",0.0,"4,S",,,,,,,,,,,19790529.0,"+,4,S",,,,,,,,,30.0,"4,S,29,+",,,,,,,,,,,24.37,"4,,,S",,,,,,,,,,,,,,,,,,,,,,,,,,,,,,,,,,,,,,,,,,,,,,,,,,,,
AM000037608,1936-01,41.1,43.7,2009.0,"SHURABAD, AM",,,,,3.0,",I",0.0,",I",0.0,",I",,,,,,,,,,,,,,,,,,,,,,,19360130.0,",,I",,,,,,,,,1.7,",,I,30,",,,,,,,4.5,",,,I",,,,,,,,,,,,,,,,,,,,,,,,,,,,,,,,,,,,,,,,,,,,,,,,,,,,,,,,,,
AM000037609,1961-01,41.0,43.9,2019.0,"GUKASYAN VERIN, AM",,,,,8.0,",I",4.0,",I",0.0,",I",,,,,,,,,,,,,,,,,,,,,,,19610119.0,",,I",,,,,,,,,12.4,",,I,19,",,,,,,,34.1,",,,I",,,,,,,,,,,,,,,,,,,,,,,,,,,,,,,,,,,,,,,,,,,,,,,,,,,,,,,,,,
AM000037618,1936-01,41.117,44.283,1509.0,"TASHIR, AM",,,,,0.0,",I",0.0,",I",0.0,",I",,,,,,,,,,,,,,,,,,,,,,,19360125.0,",,I",,,,,,,,,0.2,",,I,25,",,,,,,,0.2,",,,I",,,,,,,,,,,,,,,,,,,,,,,,,,,,,,,,,,,,,,,,,,,,,,,,,,,,,,,,,,
AM000037627,1936-03,41.05,44.633,1110.0,"ODZUN, AM",,,,,6.0,",I",5.0,",I",0.0,",I",,,,,,,,,,,,,,,,,,,,,,,19360321.0,",,I",,,,,,,,,14.5,",,I,21,",,,,,,,35.8,",,,I",,,,,,,,,,,,,,,,,,,,,,,,,,,,,,,,,,,,,,,,,,,,,,,,,,,,,,,,,,
AM000037629,1936-01,41.1,44.8,663.0,"SHNOH, AM",,,,,1.0,"1,I",0.0,"1,I",0.0,"1,I",,,,,,,,,,,,,,,,,,,,,,,19360125.0,",1,I",,,,,,,,,0.9,"1,,I,25,",,,,,,,0.9,"1,,,I",,,,,,,,,,,,,,,,,,,,,,,,,,,,,,,,,,,,,,,,,,,,,,,,,,,,,,,,,,
AM000037682,1936-01,40.783,43.833,1866.0,"AMASIA, AM",,,,,6.0,",I",2.0,",I",0.0,",I",,,,,,,,,,,,,,,,,,,,,,,19360113.0,",,I",,,,,,,,,8.4,",,I,13,",,,,,,,18.9,",,,I",,,,,,,,,,,,,,,,,,,,,,,,,,,,,,,,,,,,,,,,,,,,,,,,,,,,,,,,,,
AM000037683,1936-01,40.867,43.95,1798.0,"JABJUR IN ARMENIA, AM",,,,,7.0,"1,I",3.0,"1,I",0.0,"1,I",,,,,,,,,,,,,,,,,,,,,,,19360130.0,",1,I",,,,,,,,,9.8,"1,,I,30,",,,,,,,26.3,"1,,,I",,,,,,,,,,,,,,,,,,,,,,,,,,,,,,,,,,,,,,,,,,,,,,,,,,,,,,,,,,
AM000037686,1895-09,40.78,43.83,1523.0,"GUMRI, AM",,,0.0,",r",3.0,",r",3.0,",r",0.0,",r",,,,,0.0,",r",0.0,",r",0.0,",r",19.0,",r",0.0,",r",18950928.0,",,r",,,,,,,18950911.0,",,r",18950916.0,",,r",0.2,",r,28,",,,,,3.6,",,r,11,",27.5,",r,16,",,,142.2,",r",10.4,",,,r",,,13.59,",r",21.91,",,,r",5.28,",,,r",,,,,,,,,,,,,,,,,,,,,,,,,,,,,,,,,,,,,,,,,,,,,,,,,,
AM000037689,1936-02,40.6,44.0,1727.0,"ARTIK, AM",,,,,6.0,"1,I",3.0,"1,I",0.0,"1,I",,,,,,,,,,,,,,,,,,,,,,,19360226.0,",1,I",,,,,,,,,3.8,"1,,I,26,",,,,,,,14.3,"1,,,I",,,,,,,,,,,,,,,,,,,,,,,,,,,,,,,,,,,,,,,,,,,,,,,,,,,,,,,,,,
AM000037693,1955-01,41.0,44.367,1400.0,"STEPANAVAN, AM",,,,,3.0,",I",2.0,",I",0.0,",I",,,,,,,,,,,,,,,,,,,,,,,19550104.0,",,I",,,,,,,,,5.3,",,I,04,",,,,,,,10.1,",,,I",,,,,,,,,,,,,,,,,,,,,,,,,,,,,,,,,,,,,,,,,,,,,,,,,,,,,,,,,,
AM000037694,1963-01,40.9,44.4,2061.0,"PUSHKINSKIY PEREVAL, AM",,,,,11.0,",I",3.0,",I",0.0,",I",,,,,,,,,,,,,,,,,,,,,,,19630124.0,",,I",,,,,,,,,10.8,",,I,24,",,,,,,,28.5,",,,I",,,,,,,,,,,,,,,,,,,,,,,,,,,,,,,,,,,,,,,,,,,,,,,,,,,,,,,,,,
AM000037695,1936-04,40.833,44.267,1555.0,"SPITAK, AM",,,,,13.0,"1,I",8.0,"1,I",0.0,"1,I",,,,,,,,,,,,,,,,,,,,,,,19360413.0,",1,I",,,,,,,,,14.5,"1,,I,13,",,,,,,,75.7,"1,,,I",,,,,,,,,,,,,,,,,,,,,,,,,,,,,,,,,,,,,,,,,,,,,,,,,,,,,,,,,,
AM000037698,1959-07,40.6,44.5,1986.0,"ANKAVAN, AM",,,,,13.0,"1,I",10.0,"1,I",0.0,"1,I",,,,,,,,,,,,,,,,,,,,,,,19590729.0,",1,I",,,,,,,,,15.1,"1,,I,29,",,,,,,,60.8,"1,,,I",,,,,,,,,,,,,,,,,,,,,,,,,,,,,,,,,,,,,,,,,,,,,,,,,,,,,,,,,,
AM000037699,1936-05,40.533,44.383,1892.0,"APARAN, AM",,,,,23.0,"1,I",14.0,"1,I",0.0,"1,I",,,,,,,,,,,,,,,,,,,,,,,19360526.0,",1,I",,,,,,,,,16.8,"1,,I,26,",,,,,,,140.3,"1,,,I",,,,,,,,,,,,,,,,,,,,,,,,,,,,,,,,,,,,,,,,,,,,,,,,,,,,,,,,,,
AM000037700,1958-11,40.3,44.9,3103.0,"ERATUMBER, AM",,,,,9.0,",I",6.0,",I",0.0,",I",,,,,,,,,,,,,,,,,,,,,,,19581128.0,",,I",,,,,,,,,14.0,",,I,28,",,,,,,,51.0,",,,I",,,,,,,,,,,,,,,,,,,,,,,,,,,,,,,,,,,,,,,,,,,,,,,,,,,,,,,,,,
AM000037704,1966-03,40.817,44.5,1379.0,"VANADZOR, AM",,,,,7.0,"1,I",3.0,"1,I",0.0,"1,I",,,,,,,,,,,,,,,,,,,,,,,19660328.0,",1,I",,,,,,,,,5.1,"1,,I,28,",,,,,,,17.4,"1,,,I",,,,,,,,,,,,,,,,,,,,,,,,,,,,,,,,,,,,,,,,,,,,,,,,,,,,,,,,,,
AM000037705,1936-01,40.8,44.6,1798.0,"LERMONTOVO, AM",,,,,1.0,"4,I",0.0,"4,I",0.0,"4,I",,,,,,,,,,,,,,,,,,,,,,,19360113.0,",4,I",,,,,,,,,0.5,"4,,I,13,",,,,,,,0.7,"4,,,I",,,,,,,,,,,,,,,,,,,,,,,,,,,,,,,,,,,,,,,,,,,,,,,,,,,,,,,,,,
AM000037706,1936-01,40.75,44.867,1255.0,"DILIJAN, AM",,,,,2.0,"1,I",1.0,"1,I",0.0,"1,I",,,,,,,,,,,,,,,,,,,,,,,19360125.0,",1,I",,,,,,,,,3.0,"1,,I,25,",,,,,,,3.5,"1,,,I",,,,,,,,,,,,,,,,,,,,,,,,,,,,,,,,,,,,,,,,,,,,,,,,,,,,,,,,,,
AM000037708,1936-01,40.7,44.9,2097.0,"SEMENOVKA, AM",,,,,5.0,",I",1.0,",I",0.0,",I",,,,,,,,,,,,,,,,,,,,,,,19360109.0,",,I",,,,,,,,,4.2,",,I,09,",,,,,,,7.2,",,,I",,,,,,,,,,,,,,,,,,,,,,,,,,,,,,,,,,,,,,,,,,,,,,,,,,,,,,,,,,
AM000037711,1955-01,40.867,45.15,733.0,"IDJEVAN, AM",,,,,4.0,"3,I",1.0,"3,I",0.0,"3,I",,,,,,,,,,,,,,,,,,,,,,,19550102.0,",3,I",,,,,,,,,5.0,"3,,I,02,",,,,,,,8.0,"3,,,I",,,,,,,,,,,,,,,,,,,,,,,,,,,,,,,,,,,,,,,,,,,,,,,,,,,,,,,,,,
AM000037713,1936-01,40.9,45.5,692.0,"BERD, AM",,,,,1.0,",I",1.0,",I",0.0,",I",,,,,,,,,,,,,,,,,,,,,,,19360125.0,",,I",,,,,,,,,5.2,",,I,25,",,,,,,,5.3,",,,I",,,,,,,,,,,,,,,,,,,,,,,,,,,,,,,,,,,,,,,,,,,,,,,,,,,,,,,,,,
AM000037719,1936-01,40.6,45.35,1834.0,"CHAMBARAK, AM",,,,,1.0,",I",1.0,",I",0.0,",I",,,,,,,,,,,,,,,,,,,,,,,19360125.0,",,I",,,,,,,,,2.5,",,I,25,",,,,,,,3.0,",,,I",,,,,,,,,,,,,,,,,,,,,,,,,,,,,,,,,,,,,,,,,,,,,,,,,,,,,,,,,,
AM000037772,1966-01,40.4,43.9,1637.0,"TALIN, AM",,,,,10.0,"1,I",4.0,"1,I",0.0,"1,I",,,,,,,,,,,,,,,,,,,,,,,19660131.0,",1,I",,,,,,,,,12.6,"1,,I,31,",,,,,,,32.8,"1,,,I",,,,,,,,,,,,,,,,,,,,,,,,,,,,,,,,,,,,,,,,,,,,,,,,,,,,,,,,,,
AM000037773,1936-01,40.5,43.9,2151.0,"GARNOVIT, AM",,,,,7.0,"1,I",0.0,"1,I",0.0,"1,I",,,,,,,,,,,,,,,,,,,,,,,19360125.0,",1,I",,,,,,,,,2.3,"1,,I,25,",,,,,,,6.4,"1,,,I",,,,,,,,,,,,,,,,,,,,,,,,,,,,,,,,,,,,,,,,,,,,,,,,,,,,,,,,,,
AM000037774,1936-01,40.317,43.667,1255.0,"ARAGATS, AM",,,,,3.0,"1,I",0.0,"1,I",0.0,"1,I",,,,,,,,,,,,,,,,,,,,,,,19360130.0,",1,I",,,,,,,,,1.2,"1,,I,30,",,,,,,,2.9,"1,,,I",,,,,,,,,,,,,,,,,,,,,,,,,,,,,,,,,,,,,,,,,,,,,,,,,,,,,,,,,,
AM000037781,1929-12,40.5,44.2,3223.0,"ARAGAC VISOKOGORNAYA, AM",,,0.0,",G",,,,,,,,,,,7.0,",G",31.0,",G",30.0,",G",0.0,",G",0.0,",G",19291227.0,",,G",,,,,,,,,19291210.0,",,G",-22.6,",G,27,",,,,,,,0.7,",G,10,",,,903.6,",G",,,,,-10.82,",G",-7.19,",,,G",-14.45,",,,G",,,,,,,,,,,,,,,,,,,,,,,,,,,,,,,,,,,,,,,,,,,,,,,,,,
AM000037782,1936-01,40.4,44.3,1893.0,"AMBERD KOSHABULAKH, AM",,,,,5.0,",I",3.0,",I",0.0,",I",,,,,,,,,,,,,,,,,,,,,,,19360130.0,",,I",,,,,,,,,7.8,",,I,30,",,,,,,,19.4,",,,I",,,,,,,,,,,,,,,,,,,,,,,,,,,,,,,,,,,,,,,,,,,,,,,,,,,,,,,,,,
AM000037785,1957-01,40.3,44.4,1092.0,"ASTARAK, AM",,,,,11.0,"5,I",6.0,"5,I",0.0,"5,I",,,,,,,,,,,,,,,,,,,,,,,19570105.0,",5,I",,,,,,,,,11.7,"5,,I,05,",,,,,,,46.1,"5,,,I",,,,,,,,,,,,,,,,,,,,,,,,,,,,,,,,,,,,,,,,,,,,,,,,,,,,,,,,,,
AM000037786,1936-01,40.3,44.5,1339.0,"EGVARD, AM",,,,,6.0,"1,I",5.0,"1,I",0.0,"1,I",,,,,,,,,,,,,,,,,,,,,,,19360131.0,",1,I",,,,,,,,,12.5,"1,,I,31,",,,,,,,36.3,"1,,,I",,,,,,,,,,,,,,,,,,,,,,,,,,,,,,,,,,,,,,,,,,,,,,,,,,,,,,,,,,
AM000037787,1936-01,40.133,44.05,865.0,"ARMAVIR, AM",,,,,1.0,"1,I",0.0,"1,I",0.0,"1,I",,,,,,,,,,,,,,,,,,,,,,,19360107.0,",1,I",,,,,,,,,1.4,"1,,I,07,",,,,,,,1.6,"1,,,I",,,,,,,,,,,,,,,,,,,,,,,,,,,,,,,,,,,,,,,,,,,,,,,,,,,,,,,,,,
AM000037789,1885-06,40.2,44.5,1113.0,"YEREVAN, AM",,,,,7.0,",r",4.0,",r",0.0,",r",,,,,,,,,,,,,,,,,,,,,,,18850603.0,",,r",,,,,,,,,22.8,",,r,03,",,,,,,,59.1,",,,r",,,,,,,,,,,,,,,,,,,,,,,,,,,,,,,,,,,,,,,,,,,,,,,,,,,,,,,,,,
AM000037791,1936-01,40.4,44.683,1800.0,"FANTAN, AM",,,,,3.0,"1,I",1.0,"1,I",0.0,"1,I",,,,,,,,,,,,,,,,,,,,,,,19360129.0,",1,I",,,,,,,,,3.7,"1,,I,29,",,,,,,,7.3,"1,,,I",,,,,,,,,,,,,,,,,,,,,,,,,,,,,,,,,,,,,,,,,,,,,,,,,,,,,,,,,,
AM000037792,1936-02,40.483,44.75,1761.0,"HRAZDAN, AM",,,,,12.0,",I",6.0,",I",0.0,",I",,,,,,,,,,,,,,,,,,,,,,,19360210.0,",,I",,,,,,,,,11.9,",,I,10,",,,,,,,54.1,",,,I",,,,,,,,,,,,,,,,,,,,,,,,,,,,,,,,,,,,,,,,,,,,,,,,,,,,,,,,,,
AM000037798,1966-03,40.1,44.7,1427.0,"GARNI, AM",,,,,10.0,",I",6.0,",I",0.0,",I",,,,,,,,,,,,,,,,,,,,,,,19660328.0,",,I",,,,,,,,,17.8,",,I,28,",,,,,,,52.3,",,,I",,,,,,,,,,,,,,,,,,,,,,,,,,,,,,,,,,,,,,,,,,,,,,,,,,,,,,,,,,
AM000037801,1891-01,40.35,45.1331,1961.0,"GAVAR, AM",,,,,7.0,",E",0.0,",E",0.0,",E",,,,,,,,,,,,,,,,,,,,,,,18910113.0,",,E",,,,,,,,,2.2,",,E,13,",,,,,,,6.9,",,,E",,,,,,,,,,,,,,,,,,,,,,,,,,,,,,,,,,,,,,,,,,,,,,,,,,,,,,,,,,
AM000037802,1936-01,40.5,45.3,1929.0,"SHORJA, AM",,,,,4.0,",I",2.0,",I",0.0,",I",,,,,,,,,,,,,,,,,,,,,,,19360109.0,",,I",,,,,,,,,5.7,",,I,09,",,,,,,,11.6,",,,I",,,,,,,,,,,,,,,,,,,,,,,,,,,,,,,,,,,,,,,,,,,,,,,,,,,,,,,,,,
AM000037808,1936-01,40.5,45.3,1943.0,"MARTUNI, AM",,,,,2.0,",I",0.0,",I",0.0,",I",,,,,,,,,,,,,,,,,,,,,,,19360125.0,",,I",,,,,,,,,0.4,",,I,25,",,,,,,,1.0,",,,I",,,,,,,,,,,,,,,,,,,,,,,,,,,,,,,,,,,,,,,,,,,,,,,,,,,,,,,,,,
AM000037815,1938-01,40.2,45.75,1940.0,"MASRIK, AM",,,,,8.0,",I",3.0,",I",0.0,",I",,,,,,,,,,,,,,,,,,,,,,,19380102.0,",,I",,,,,,,,,4.6,",,I,02,",,,,,,,17.4,",,,I",,,,,,,,,,,,,,,,,,,,,,,,,,,,,,,,,,,,,,,,,,,,,,,,,,,,,,,,,,
AM000037871,1936-01,39.817,44.567,822.0,"ARARAT, AM",,,,,1.0,",I",0.0,",I",0.0,",I",,,,,,,,,,,,,,,,,,,,,,,19360130.0,",,I",,,,,,,,,2.3,",,I,30,",,,,,,,2.3,",,,I",,,,,,,,,,,,,,,,,,,,,,,,,,,,,,,,,,,,,,,,,,,,,,,,,,,,,,,,,,
AM000037872,1955-01,39.9,44.9,1064.0,"URCADZOR, AM",,,,,2.0,"1,I",0.0,"1,I",0.0,"1,I",,,,,,,,,,,,,,,,,,,,,,,19550117.0,",1,I",,,,,,,,,0.9,"1,,I,17,",,,,,,,1.7,"1,,,I",,,,,,,,,,,,,,,,,,,,,,,,,,,,,,,,,,,,,,,,,,,,,,,,,,,,,,,,,,
AM000037873,1936-02,40.0,45.23,2334.0,"YANYKH, AM",,,,,7.0,",I",3.0,",I",0.0,",I",,,,,,,,,,,,,,,,,,,,,,,19360227.0,",,I",,,,,,,,,6.7,",,I,27,",,,,,,,17.1,",,,I",,,,,,,,,,,,,,,,,,,,,,,,,,,,,,,,,,,,,,,,,,,,,,,,,,,,,,,,,,
AM000037874,1955-02,39.767,45.333,1317.0,"EHGNADZOR, AM",,,,,4.0,"1,I",1.0,"1,I",0.0,"1,I",,,,,,,,,,,,,,,,,,,,,,,19550223.0,",1,I",,,,,,,,,3.5,"1,,I,23,",,,,,,,6.6,"1,,,I",,,,,,,,,,,,,,,,,,,,,,,,,,,,,,,,,,,,,,,,,,,,,,,,,,,,,,,,,,
AM000037875,1955-01,39.7,45.2,1008.0,"ARENY, AM",,,,,2.0,",I",0.0,",I",0.0,",I",,,,,,,,,,,,,,,,,,,,,,,19550117.0,",,I",,,,,,,,,2.0,",,I,17,",,,,,,,2.3,",,,I",,,,,,,,,,,,,,,,,,,,,,,,,,,,,,,,,,,,,,,,,,,,,,,,,,,,,,,,,,
AM000037876,1962-01,39.8,45.4,1312.0,"EHEGNADZOR, AM",,,,,4.0,"2,I",2.0,"2,I",0.0,"2,I",,,,,,,,,,,,,,,,,,,,,,,19620104.0,",2,I",,,,,,,,,14.0,"2,,I,04,",,,,,,,30.1,"2,,,I",,,,,,,,,,,,,,,,,,,,,,,,,,,,,,,,,,,,,,,,,,,,,,,,,,,,,,,,,,
AM000037878,1960-12,39.8,45.0,2130.0,"BESIIMYANNIY PEREVAL, AM",,,,,3.0,"2,I",1.0,"2,I",0.0,"2,I",,,,,,,,,,,,,,,,,,,,,,,19601229.0,",2,I",,,,,,,,,3.1,"2,,I,29,",,,,,,,4.5,"2,,,I",,,,,,,,,,,,,,,,,,,,,,,,,,,,,,,,,,,,,,,,,,,,,,,,,,,,,,,,,,
AM000037880,1961-12,39.7,45.7,2392.0,"KOCHBEC, AM",,,,,10.0,"3,I",5.0,"3,I",0.0,"3,I",,,,,,,,,,,,,,,,,,,,,,,19611223.0,",3,I",,,,,,,,,20.7,"3,,I,23,",,,,,,,49.2,"3,,,I",,,,,,,,,,,,,,,,,,,,,,,,,,,,,,,,,,,,,,,,,,,,,,,,,,,,,,,,,,
AM000037884,1956-02,39.8,45.8,2075.0,"D ERMUK, AM",,,,,19.0,",I",15.0,",I",2.0,",I",,,,,,,,,,,,,,,,,,,,,,,19560228.0,",,I",,,,,,,,,29.4,",,I,28,",,,,,,,138.7,",,,I",,,,,,,,,,,,,,,,,,,,,,,,,,,,,,,,,,,,,,,,,,,,,,,,,,,,,,,,,,
AM000037887,1936-01,39.6,45.5,1942.0,"MARTIROS, AM",,,,,5.0,"1,I",2.0,"1,I",0.0,"1,I",,,,,,,,,,,,,,,,,,,,,,,19360130.0,",1,I",,,,,,,,,5.9,"1,,I,30,",,,,,,,14.0,"1,,,I",,,,,,,,,,,,,,,,,,,,,,,,,,,,,,,,,,,,,,,,,,,,,,,,,,,,,,,,,,
AM000037897,1936-01,39.533,46.017,1581.0,"SISIAN, AM",,,,,3.0,",I",0.0,",I",0.0,",I",,,,,,,,,,,,,,,,,,,,,,,19360130.0,",,I",,,,,,,,,0.6,",,I,30,",,,,,,,1.4,",,,I",,,,,,,,,,,,,,,,,,,,,,,,,,,,,,,,,,,,,,,,,,,,,,,,,,,,,,,,,,
AM000037954,1975-01,39.2,46.2,2574.0,"KADJARAN, AM",,,,,10.0,"5,I",5.0,"5,I",0.0,"5,I",,,,,,,,,,,,,,,,,,,,,,,19750105.0,",5,I",,,,,,,,,16.3,"5,,I,05,",,,,,,,51.4,"5,,,I",,,,,,,,,,,,,,,,,,,,,,,,,,,,,,,,,,,,,,,,,,,,,,,,,,,,,,,,,,
AM000037958,1936-01,38.9,46.25,628.0,"MEGRI, AM",,,,,3.0,",I",2.0,",I",0.0,",I",,,,,,,,,,,,,,,,,,,,,,,19360131.0,",,I",,,,,,,,,5.1,",,I,31,",,,,,,,9.8,",,,I",,,,,,,,,,,,,,,,,,,,,,,,,,,,,,,,,,,,,,,,,,,,,,,,,,,,,,,,,,
AM000037959,1936-01,39.2,46.433,706.0,"KAPAN, AM",,,,,1.0,"1,I",1.0,"1,I",0.0,"1,I",,,,,,,,,,,,,,,,,,,,,,,19360114.0,",1,I",,,,,,,,,2.5,"1,,I,14,",,,,,,,2.5,"1,,,I",,,,,,,,,,,,,,,,,,,,,,,,,,,,,,,,,,,,,,,,,,,,,,,,,,,,,,,,,,
AMM00037717,2002-11,40.567,45.0,1917.0,"SEVAN OZERO, AM",,,,,0.0,"3,S",0.0,"3,S",0.0,"3,S",,,,,,,,,0.0,"4,S",0.0,"4,S",0.0,"4,S",,,,,,,,,20021130.0,"+,3,S",20021106.0,",4,S",,,,,,,0.0,"3,,S,30,+",13.3,"4,S,06,",,,,,0.0,"3,,,S",,,,,9.03,"4,,,S",,,,,,,,,,,,,,,,,,,,,,,,,,,,,,,,,,,,,,,,,,,,,,,,,,,,
AO000066160,1963-01,-8.85,13.233,74.0,"LUANDA, AO",,,,,5.0,",I",4.0,",I",0.0,",I",,,,,0.0,"4,I",0.0,"4,I",0.0,"2,I",29.0,"2,I",7.0,"2,I",19630125.0,"+,4,I",,,,,,,19630111.0,",,I",19630120.0,",2,I",21.1,"4,I,25,+",,,,,20.1,",,I,11,",33.9,"2,I,20,",,,,,54.3,",,,I",,,26.73,"6,I",30.74,"2,,,I",22.71,"4,,,I",,,,,,,,,,,,,,,,,,,,,,,,,,,,,,,,,,,,,,,,,,,,,,,,,,
AO000066270,1962-03,-11.417,15.117,1304.0,"WAKU KUNGU CELA, AO",,,,,21.0,"4,I",15.0,"4,I",5.0,"4,I",,,,,0.0,"5,I",0.0,"5,I",,,,,,,19620329.0,",5,I",,,,,,,19620319.0,",4,I",,,10.0,"5,I,29,",,,,,59.9,"4,,I,19,",,,,,,,348.2,"4,,,I",,,,,,,15.63,"5,,,I",,,,,,,,,,,,,,,,,,,,,,,,,,,,,,,,,,,,,,,,,,,,,,,,,,
AO000066390,1957-11,-14.933,13.567,1761.0,"LUBANGO SA DA BAND, AO",,,,,,,,,,,,,,,0.0,"5,I",0.0,"5,I",,,,,,,19571121.0,"+,5,I",,,,,,,,,,,12.2,"5,I,21,+",,,,,,,,,,,,,,,,,,,,,14.42,"5,,,I",,,,,,,,,,,,,,,,,,,,,,,,,,,,,,,,,,,,,,,,,,,,,,,,,,
AO000066410,1958-03,-14.65,17.683,1343.0,"MENONGUE SERPA PIN, AO",,,,,14.0,"5,I",9.0,"5,I",0.0,"5,I",,,,,,,,,,,,,,,,,,,,,,,19580307.0,",5,I",,,,,,,,,14.0,"5,,I,07,",,,,,,,96.5,"5,,,I",,,,,,,,,,,,,,,,,,,,,,,,,,,,,,,,,,,,,,,,,,,,,,,,,,,,,,,,,,
AO000066422,1957-06,-15.2,12.15,45.0,"MOCAMEDES, AO",,,,,0.0,"1,I",0.0,"1,I",0.0,"1,I",,,,,0.0,",I",0.0,",I",,,,,,,19570627.0,",,I",,,,,,,19570630.0,"+,1,I",,,7.2,",I,27,",,,,,0.0,"1,,I,30,+",,,,,,,0.0,"1,,,I",,,,,,,11.94,",,,I",,,,,,,,,,,,,,,,,,,,,,,,,,,,,,,,,,,,,,,,,,,,,,,,,,
AO000066447,1961-02,-15.833,20.35,1088.0,"MAVINGA, AO",,,,,10.0,"5,I",7.0,"5,I",1.0,"5,I",,,,,,,,,,,,,,,,,,,,,,,19610207.0,",5,I",,,,,,,,,89.9,"5,,I,07,",,,,,,,148.3,"5,,,I",,,,,,,,,,,,,,,,,,,,,,,,,,,,,,,,,,,,,,,,,,,,,,,,,,,,,,,,,,
AQC00914000,1980-01,-14.31667,-170.76667,408.4,"AASUFOU, AS AQ",,,,,16.0,",0",14.0,",0",3.0,",0",0.0,",0",0.0,",0",,,,,,,,,,,,,19800131.0,"+,,0",19800131.0,"+,,0",,,19800102.0,",,0",,,,,0.0,",,0,31,+",0.0,",,0,31,+",69.6,",,0,02,",,,,,,,306.9,",,,0",0.0,",,,0",,,,,,,,,,,,,,,,,,,,,,,,,,,,,,,,,,,,,,,,,,,,,,,,,,,,,,,,
AQC00914005,1980-01,-14.26667,-170.65,182.9,"AFONO, AS AQ",,,,,,,,,,,0.0,",0",0.0,",0",,,,,,,,,,,,,19800131.0,"+,,0",19800131.0,"+,,0",,,,,,,,,0.0,",,0,31,+",0.0,",,0,31,+",,,,,,,,,,,0.0,",,,0",,,,,,,,,,,,,,,,,,,,,,,,,,,,,,,,,,,,,,,,,,,,,,,,,,,,,,,,
AQC00914021,1955-04,-14.26667,-170.58333,6.1,"AMOULI TUTUILA, AS AQ",,,256.6,",0",9.0,",0",9.0,",0",5.0,",0",0.0,",0",0.0,",0",0.0,",0",0.0,",0",0.0,",0",30.0,",0",2.0,",0",19550405.0,",,0",19550430.0,"+,,0",19550430.0,"+,,0",1.0,,19550406.0,",,0",19550413.0,"+,,0",21.7,",0,05,",0.0,",,0,30,+",0.0,",,0,30,+",37.8,",,0,06,",32.2,",0,13,+",,,0.0,",0",202.5,",,,0",0.0,",,,0",26.89,",0",30.04,",,,0",23.73,",,,0",,,,,,,,,,,,,,,,,,,,,,,,,,,,,,,,,,,,,,,,,,,,,,,,,,
AQC00914060,1977-10,-14.26667,-170.68333,80.8,"ATUU, AS AQ",,,,,20.0,",0",16.0,",0",6.0,",0",0.0,",0",0.0,",0",,,,,,,,,,,,,19771031.0,"+,,0",19771031.0,"+,,0",,,19771005.0,",,0",,,,,0.0,",,0,31,+",0.0,",,0,31,+",87.1,",,0,05,",,,,,,,434.9,",,,0",0.0,",,,0",,,,,,,,,,,,,,,,,,,,,,,,,,,,,,,,,,,,,,,,,,,,,,,,,,,,,,,,
AQC00914135,1963-09,-14.3,-170.7,249.9,"FAGA ALU RESERVOIR, AS AQ",,,,,8.0,",0",7.0,",0",3.0,",0",0.0,"4,0",0.0,"4,0",,,,,,,,,,,,,19630930.0,"+,4,0",19630930.0,"+,4,0",,,19630907.0,",,0",,,,,0.0,"4,,0,30,+",0.0,"4,,0,30,+",84.6,",,0,07,",,,,,,,228.4,",,,0",0.0,"4,,,0",,,,,,,,,,,,,,,,,,,,,,,,,,,,,,,,,,,,,,,,,,,,,,,,,,,,,,,,
AQC00914138,1958-07,-14.28333,-170.68333,24.1,"FAGA ALU STREAM, AS AQ",,,,,12.0,",0",12.0,",0",4.0,",0",0.0,",0",0.0,",0",,,,,,,,,,,,,19580731.0,"+,,0",19580731.0,"+,,0",,,19580716.0,",,0",,,,,0.0,",,0,31,+",0.0,",,0,31,+",63.5,",,0,16,",,,,,,,229.8,",,,0",0.0,",,,0",,,,,,,,,,,,,,,,,,,,,,,,,,,,,,,,,,,,,,,,,,,,,,,,,,,,,,,,
AQC00914141,2019-08,-14.26667,-170.61667,4.6,"FAGAITUA, AS AQ",,,,,10.0,",7",7.0,",7",2.0,",7",,,,,,,,,,,,,,,,,,,,,,,20190816.0,",,7",,,,,,,,,69.6,",,7,16,",,,,,,,151.0,",,,7",,,,,,,,,,,,,,,,,,,,,,,,,,,,,,,,,,,,,,,,,,,,,,,,,,,,,,,,,,
AQC00914145,1957-03,-14.28333,-170.71667,14.9,"FAGASA TUTUILA, AS AQ",,,,,,,,,,,0.0,",0",0.0,",0",,,,,,,,,,,,,19570331.0,"+,,0",19570331.0,"+,,0",1.0,,,,,,,,0.0,",,0,31,+",0.0,",,0,31,+",,,,,,,,,,,0.0,",,,0",,,,,,,,,,,,,,,,,,,,,,,,,,,,,,,,,,,,,,,,,,,,,,,,,,,,,,,,
AQC00914149,1958-07,-14.28333,-170.68333,57.0,"FAGA TOGO, AS AQ",,,,,12.0,",0",11.0,",0",3.0,",0",0.0,",0",0.0,",0",,,,,,,,,,,,,19580731.0,"+,,0",19580731.0,"+,,0",,,19580716.0,",,0",,,,,0.0,",,0,31,+",0.0,",,0,31,+",74.9,",,0,16,",,,,,,,253.8,",,,0",0.0,",,,0",,,,,,,,,,,,,,,,,,,,,,,,,,,,,,,,,,,,,,,,,,,,,,,,,,,,,,,,
AQC00914188,1955-06,-14.22111,-169.51305,6.1,"FALEASAO TAU, AS AQ",,,263.0,"1,0",12.0,",0",10.0,",0",0.0,",0",0.0,",0",0.0,",0",0.0,"1,0",0.0,"1,0",0.0,",0",30.0,",0",23.0,",0",19550626.0,"+,1,0",19550630.0,"+,,0",19550630.0,"+,,0",,,19550628.0,",,0",19550630.0,"+,,0",21.1,"1,0,26,+",0.0,",,0,30,+",0.0,",,0,30,+",17.8,",,0,28,",32.2,",0,30,+",,,0.0,",0",79.9,",,,0",0.0,",,,0",27.41,"1,0",31.5,",,,0",23.33,"1,,,0",,,,,,,,,,,,,,,,,,,,,,,,,,,,,,,,,,,,,,,,,,,,,,,,,,
AQC00914248,1975-11,-14.221483,-169.512897,6.1,"FALEASAO VILLAGE, AS AQ",,,,,25.0,",0",13.0,",0",4.0,",0",0.0,",0",0.0,",0",,,,,,,,,,,,,19751130.0,"+,,0",19751130.0,"+,,0",,,19751126.0,",,0",,,,,0.0,",,0,30,+",0.0,",,0,30,+",62.5,",,0,26,",,,,,,,276.6,",,,0",0.0,",,,0",,,,,,,,,,,,,,,,,,,,,,,,,,,,,,,,,,,,,,,,,,,,,,,,,,,,,,,,
AQC00914397,1967-08,-14.35,-170.78333,6.1,"MALAELOA, AS AQ",,,225.4,",0",27.0,",0",14.0,",0",4.0,",0",0.0,",0",0.0,",0",0.0,",0",0.0,",0",0.0,",0",31.0,",0",0.0,",0",19670805.0,"+,,0",19670831.0,"+,,0",19670831.0,"+,,0",,,19670811.0,",,0",19670831.0,",,0",17.8,",0,05,+",0.0,",,0,31,+",0.0,",,0,31,+",141.5,",,0,11,",31.1,",0,31,",,,0.0,",0",394.0,",,,0",0.0,",,,0",25.6,",0",29.0,",,,0",22.21,",,,0",,,,,,,,,,,,,,,,,,,,,,,,,,,,,,,,,,,,,,,,,,,,,,,,,,
AQC00914424,1969-07,-14.233119,-169.515953,6.1,"LUMA VILLAGE, AS AQ",,,,,22.0,"2,0",17.0,"2,0",6.0,"2,0",0.0,",0",0.0,",0",,,,,,,,,,,,,19690731.0,"+,,0",19690731.0,"+,,0",,,19690715.0,",2,0",,,,,0.0,",,0,31,+",0.0,",,0,31,+",131.6,"2,,0,15,",,,,,,,634.7,",a,,0",0.0,",,,0",,,,,,,,,,,,,,,,,,,,,,,,,,,,,,,,,,,,,,,,,,,,,,,,,,,,,,,,
AQC00914594,1978-11,-14.33333,-170.76667,42.4,"MALAELOA, AS AQ",,,,,24.0,",0",22.0,",0",11.0,",0",0.0,",0",0.0,",0",,,,,,,,,,,,,19781130.0,"+,,0",19781130.0,"+,,0",,,19781110.0,",,0",,,,,0.0,",,0,30,+",0.0,",,0,30,+",108.7,",,0,10,",,,,,,,889.1,",,,0",0.0,",,,0",,,,,,,,,,,,,,,,,,,,,,,,,,,,,,,,,,,,,,,,,,,,,,,,,,,,,,,,
AQC00914650,1955-06,-14.170658,-169.678928,3.0,"OFU, AS AQ",,,,,8.0,",0",8.0,",0",0.0,",0",0.0,",0",0.0,",0",,,,,,,,,,,,,19550630.0,"+,,0",19550630.0,"+,,0",,,19550607.0,",,0",,,,,0.0,",,0,30,+",0.0,",,0,30,+",17.5,",,0,07,",,,,,,,72.3,",,,0",0.0,",,,0",,,,,,,,,,,,,,,,,,,,,,,,,,,,,,,,,,,,,,,,,,,,,,,,,,,,,,,,
AQC00914822,1968-12,-11.05,-171.08333,3.0,"SWAIN ISLAND, AS AQ",,,309.8,",0",17.0,"4,0",13.0,"4,0",2.0,"4,0",0.0,",0",0.0,",0",0.0,",0",0.0,",0",0.0,",0",31.0,",0",14.0,",0",19681226.0,",,0",19681231.0,"+,,0",19681231.0,"+,,0",,,19681207.0,",4,0",19681216.0,"+,,0",23.3,",0,26,",0.0,",,0,31,+",0.0,",,0,31,+",28.4,"4,,0,07,",32.8,",0,16,+",,,0.0,",0",136.0,"4,,,0",0.0,",,,0",28.33,",0",31.84,",,,0",24.82,",,,0",,,,,,,,,,,,,,,,,,,,,,,,,,,,,,,,,,,,,,,,,,,,,,,,,,
AQC00914869,1956-04,-14.33333,-170.71667,3.0,"PAGO PAGO WEATHER SERVICE OFFICE AIRPORT, AS AQ",,,,,,,,,,,,,,,,,,,,,,,,,,,,,,,,,,,,,,,,,,,,,,,,,,,155.4,"3,a,,0",,,,,,,,,,,,,,,,,,,,,,,,,,,,,,,,,,,,,,,,,,,,,,,,,,,,,,,,,,
AQC00914873,1955-04,-14.35,-170.76667,14.9,"MALAELOA, AS AQ",,,241.5,",0",24.0,",0",16.0,",0",4.0,",0",0.0,",0",0.0,",0",0.0,",0",0.0,",0",0.0,",0",30.0,",0",2.0,",0",19550422.0,"+,,0",19550430.0,"+,,0",19550430.0,"+,,0",3.0,,19550417.0,",,0",19550414.0,"+,,0",20.6,",0,22,+",0.0,",,0,30,+",0.0,",,0,30,+",65.3,",,0,17,",32.2,",0,14,+",,,0.0,",0",300.2,",,,0",0.0,",,,0",26.38,",0",30.52,",,,0",22.24,",,,0",,,,,,,,,,,,,,,,,,,,,,,,,,,,,,,,,,,,,,,,,,,,,,,,,,
AQC00914902,1958-07,-14.27278,-170.69222,80.8,"VAIPITO, AS AQ",,,,,13.0,",0",11.0,",0",3.0,",0",0.0,",0",0.0,",0",,,,,,,,,,,,,19580731.0,"+,,0",19580731.0,"+,,0",,,19580716.0,",,0",,,,,0.0,",,0,31,+",0.0,",,0,31,+",54.6,",,0,16,",,,,,,,191.8,",,,0",0.0,",,,0",,,,,,,,,,,,,,,,,,,,,,,,,,,,,,,,,,,,,,,,,,,,,,,,,,,,,,,,
AQC00914912,1955-04,-14.25,-170.66667,3.0,"VATIA, AS AQ",,,,,22.0,",0",17.0,",0",3.0,",0",0.0,",0",0.0,",0",,,,,,,,,,,,,19550430.0,"+,,0",19550430.0,"+,,0",,,19550403.0,",,0",,,,,0.0,",,0,30,+",0.0,",,0,30,+",83.8,",,0,03,",,,,,,,302.1,",,,0",0.0,",,,0",,,,,,,,,,,,,,,,,,,,,,,,,,,,,,,,,,,,,,,,,,,,,,,,,,,,,,,,
AQW00061705,1966-04,-14.33056,-170.71361,3.7,"PAGO PAGO WEATHER SERVICE OFFICE AIRPORT, AS AQ",,,275.1,",0",22.0,",0",16.0,",0",2.0,",0",0.0,",0",0.0,",0",0.0,",0",0.0,",0",0.0,",0",30.0,",0",8.0,",0",19660418.0,"+,,0",19660430.0,"+,,0",19660430.0,"+,,0",1.0,,19660422.0,",,0",19660406.0,",,0",22.2,",0,18,+",0.0,",,0,30,+",0.0,",,0,30,+",53.6,",,0,22,",33.3,",0,06,",,,0.0,",0",264.7,",,,0",0.0,",,,0",27.5,",0",30.87,",,,0",24.14,",,,0",,,,,,,,,,,,,,,,,,,42.9,",X",,,,,,,9096.0,",X",,,,,,,,,135.0,",X",,,,,,,,,,,12.1,",X"
AR000000001,1981-01,-29.6,-58.15,109.0,"BAIBENE, AR",,,,,4.0,",I",4.0,",I",2.0,",I",,,,,,,,,,,,,,,,,,,,,,,19810120.0,",,I",,,,,,,,,43.0,",,I,20,",,,,,,,89.0,",,,I",,,,,,,,,,,,,,,,,,,,,,,,,,,,,,,,,,,,,,,,,,,,,,,,,,,,,,,,,,
AR000000002,1981-01,-29.82,-57.42,75.0,"BONPLAND, AR",,,,,7.0,",I",7.0,",I",0.0,",I",,,,,,,,,,,,,,,,,,,,,,,19810120.0,",,I",,,,,,,,,25.0,",,I,20,",,,,,,,95.0,",,,I",,,,,,,,,,,,,,,,,,,,,,,,,,,,,,,,,,,,,,,,,,,,,,,,,,,,,,,,,,
AR000000003,1981-01,-29.98,-58.28,90.0,"CAZADORES CORRENTINOS, AR",,,,,4.0,",I",4.0,",I",2.0,",I",,,,,,,,,,,,,,,,,,,,,,,19810120.0,",,I",,,,,,,,,40.0,",,I,20,",,,,,,,94.0,",,,I",,,,,,,,,,,,,,,,,,,,,,,,,,,,,,,,,,,,,,,,,,,,,,,,,,,,,,,,,,
AR000000004,1981-01,-30.78,-58.15,71.0,"CHAJAR355, AR",,,,,7.0,"2,I",7.0,"2,I",1.0,"2,I",,,,,,,,,,,,,,,,,,,,,,,19810129.0,",2,I",,,,,,,,,28.0,"2,,I,29,",,,,,,,83.0,"2,,,I",,,,,,,,,,,,,,,,,,,,,,,,,,,,,,,,,,,,,,,,,,,,,,,,,,,,,,,,,,
AR000000005,1981-01,-30.03,-57.82,74.0,"COLONIA LIBERTAD, AR",,,,,4.0,"1,I",4.0,"1,I",2.0,"1,I",,,,,,,,,,,,,,,,,,,,,,,19810120.0,",1,I",,,,,,,,,36.0,"1,,I,20,",,,,,,,97.0,"1,,,I",,,,,,,,,,,,,,,,,,,,,,,,,,,,,,,,,,,,,,,,,,,,,,,,,,,,,,,,,,
AR000000006,1981-01,-31.38,-58.02,38.0,"CONCORDIA, AR",,,,,5.0,"1,I",5.0,"1,I",4.0,"1,I",,,,,,,,,,,,,,,,,,,,,,,19810106.0,",1,I",,,,,,,,,56.0,"1,,I,06,",,,,,,,195.0,"1,,,I",,,,,,,,,,,,,,,,,,,,,,,,,,,,,,,,,,,,,,,,,,,,,,,,,,,,,,,,,,
AR000000007,1981-01,-30.58,-58.45,72.0,"CONQUISTADORES, AR",,,,,5.0,"1,I",5.0,"1,I",3.0,"1,I",,,,,,,,,,,,,,,,,,,,,,,19810120.0,",1,I",,,,,,,,,95.0,"1,,I,20,",,,,,,,223.0,"1,,,I",,,,,,,,,,,,,,,,,,,,,,,,,,,,,,,,,,,,,,,,,,,,,,,,,,,,,,,,,,
AR000000008,1977-11,-29.783,-57.983,70.0,"CURUZU CUATIA AERO, AR",,,,,8.0,"2,S",8.0,"2,S",1.0,"2,S",,,,,0.0,"3,",0.0,"3,S",,,,,,,19771113.0,",3,S",,,,,,,19771127.0,",2,S",,,8.0,"3,S,13,",,,,,59.9,"2,,S,27,",,,,,,,141.9,"2,,,S",,,,,,,14.44,"3,,,S",,,,,,,,,,,,,,,,,,,,,,,,,,,,,,,,,,,,,,,,,,,,,,,,,,
AR000000009,1981-03,-31.0,-57.9,38.0,"FEDERACI 363N, AR",,,,,2.0,"2,I",2.0,"2,I",1.0,"2,I",,,,,,,,,,,,,,,,,,,,,,,19810314.0,",2,I",,,,,,,,,30.0,"2,,I,14,",,,,,,,45.0,"2,,,I",,,,,,,,,,,,,,,,,,,,,,,,,,,,,,,,,,,,,,,,,,,,,,,,,,,,,,,,,,
AR000000010,1981-01,-30.68,-57.82,37.0,"MOCORETA LAGO, AR",,,,,7.0,"2,I",7.0,"2,I",1.0,"2,I",,,,,,,,,,,,,,,,,,,,,,,19810120.0,",2,I",,,,,,,,,120.0,"2,,I,20,",,,,,,,185.0,"2,,,I",,,,,,,,,,,,,,,,,,,,,,,,,,,,,,,,,,,,,,,,,,,,,,,,,,,,,,,,,,
AR000000011,1967-09,-30.267,-57.65,53.0,"MONTE CASEROS AERO, AR",,,,,,,,,,,,,,,0.0,"4,S",0.0,"4,S",,,,,,,19670913.0,",4,S",,,,,,,,,,,6.1,"4,S,13,",,,,,,,,,,,,,,,,,,,,,13.2,"4,,,S",,,,,,,,,,,,,,,,,,,,,,,,,,,,,,,,,,,,,,,,,,,,,,,,,,
AR000000012,1981-01,-29.73,-57.08,58.0,"PASO DE LOS LIBRES, AR",,,,,2.0,"2,I",2.0,"2,I",1.0,"2,I",,,,,,,,,,,,,,,,,,,,,,,19810120.0,",2,I",,,,,,,,,31.0,"2,,I,20,",,,,,,,44.0,"2,,,I",,,,,,,,,,,,,,,,,,,,,,,,,,,,,,,,,,,,,,,,,,,,,,,,,,,,,,,,,,
AR000000013,1981-01,-30.42,-57.85,86.0,"PUJOL, AR",,,,,8.0,"1,I",8.0,"1,I",2.0,"1,I",,,,,,,,,,,,,,,,,,,,,,,19810120.0,",1,I",,,,,,,,,49.0,"1,,I,20,",,,,,,,172.0,"1,,,I",,,,,,,,,,,,,,,,,,,,,,,,,,,,,,,,,,,,,,,,,,,,,,,,,,,,,,,,,,
AR000000014,1981-01,-31.08,-58.28,70.0,"REDOM363N, AR",,,,,7.0,",I",7.0,",I",2.0,",I",,,,,,,,,,,,,,,,,,,,,,,19810120.0,",,I",,,,,,,,,66.0,",,I,20,",,,,,,,135.0,",,,I",,,,,,,,,,,,,,,,,,,,,,,,,,,,,,,,,,,,,,,,,,,,,,,,,,,,,,,,,,
AR000000015,1981-01,-30.03,-58.3,83.0,"SAN JAIME DE ARRUABARRENA, AR",,,,,4.0,"2,I",4.0,"2,I",3.0,"2,I",,,,,,,,,,,,,,,,,,,,,,,19810127.0,",2,I",,,,,,,,,31.0,"2,,I,27,",,,,,,,112.0,"2,,,I",,,,,,,,,,,,,,,,,,,,,,,,,,,,,,,,,,,,,,,,,,,,,,,,,,,,,,,,,,
AR000000016,1981-01,-29.37,-58.18,110.0,"SOLARI, AR",,,,,5.0,"1,I",5.0,"1,I",1.0,"1,I",,,,,,,,,,,,,,,,,,,,,,,19810120.0,",1,I",,,,,,,,,42.0,"1,,I,20,",,,,,,,68.0,"1,,,I",,,,,,,,,,,,,,,,,,,,,,,,,,,,,,,,,,,,,,,,,,,,,,,,,,,,,,,,,,
AR000087007,1956-04,-22.1,-65.6,3479.0,"LA QUIACA OBSERVATO, AR",,,0.0,",G",,,,,,,,,,,0.0,",G",19.0,",G",0.0,",G",6.0,",G",0.0,",G",19560430.0,",,G",,,,,,,,,19560402.0,",,G",-4.5,",G,30,",,,,,,,24.2,",G,02,",,,279.6,",G",,,,,9.01,",G",18.96,",,,G",-0.94,",,,G",,,,,,,,,,,,,,,,,,,,,,,,,,,,,,,,,,,,,,,,,,,,,,,,,,
AR000087065,1956-04,-24.167,-62.9,205.0,"RIVADAVIA, AR",,,88.4,",G",,,,,,,,,,,0.0,",G",0.0,",G",0.0,",G",29.0,",G",0.0,",G",19560412.0,",,G",,,,,,,,,19560409.0,",,G",5.2,",G,12,",,,,,,,31.6,",G,09,",,,7.1,",G",,,,,21.04,",G",26.64,",,,G",15.44,",,,G",,,,,,,,,,,,,,,,,,,,,,,,,,,,,,,,,,,,,,,,,,,,,,,,,,
AR000087078,1956-04,-24.7,-60.583,130.0,"LAS LOMITAS, AR",,,56.1,",G",,,,,,,,,,,0.0,",G",0.0,",G",0.0,",G",27.0,",G",0.0,",G",19560412.0,",,G",,,,,,,,,19560408.0,",,G",3.4,",G,12,",,,,,,,29.6,",G,08,",,,17.2,",G",,,,,19.63,",G",25.0,",,,G",14.26,",,,G",,,,,,,,,,,,,,,,,,,,,,,,,,,,,,,,,,,,,,,,,,,,,,,,,,
AR000087129,1956-02,-27.767,-64.3,200.0,"SANTIAGO DEL ESTERO, AR",,,169.1,",G",,,,,,,,,,,0.0,",G",0.0,",G",0.0,",G",29.0,",G",10.0,",G",19560222.0,",,G",,,,,,,,,19560220.0,",,G",12.8,",G,22,",,,,,,,38.4,",G,20,",,,0.2,",G",,,,,24.16,",G",30.7,",,,G",17.62,",,,G",,,,,,,,,,,,,,,,,,,,,,,,,,,,,,,,,,,,,,,,,,,,,,,,,,
AR000087155,1964-07,-27.45,-59.05,53.0,"RESISTENCIA AERO, AR",20.2,I,20.2,",G",,,,,,,,,,,0.0,",G",2.0,",G",0.0,",G",13.0,",G",0.0,",G",19640704.0,",,G",,,,,,,,,19640731.0,",,G",-1.5,",G,04,",,,,,,,29.9,",G,31,",,,159.4,",G",,,,,13.84,",G",21.17,",,,G",6.51,",,,G",,,,,,,,,,,,,,,,,,,,,,,,,,,,,,,,,,,,,,,,,,,,,,,,,,
AR000087217,1956-02,-29.383,-66.817,438.0,"LA RIOJA AERO., AR",,,239.7,",G",,,,,,,,,,,0.0,",G",0.0,",G",0.0,",G",29.0,",G",22.0,",G",19560206.0,",,G",,,,,,,,,19560220.0,",,G",11.5,",G,06,",,,,,,,42.2,",G,20,",,,0.0,",G",,,,,26.6,",G",34.51,",,,G",18.69,",,,G",,,,,,,,,,,,,,,,,,,,,,,,,,,,,,,,,,,,,,,,,,,,,,,,,,
AR000087257,1956-04,-29.883,-61.95,88.0,"CERES AERO, AR",,,26.8,",G",,,,,,,,,,,0.0,",G",0.0,",G",0.0,",G",28.0,",G",0.0,",G",19560412.0,",,G",,,,,,,,,19560409.0,",,G",2.1,",G,12,",,,,,,,29.8,",G,09,",,,45.5,",G",,,,,17.71,",G",24.73,",,,G",10.68,",,,G",,,,,,,,,,,,,,,,,,,,,,,,,,,,,,,,,,,,,,,,,,,,,,,,,,
AR000087270,1961-01,-29.183,-59.7,53.0,"RECONQUISTA AERO, AR",,,263.3,",G",,,,,,,,,,,0.0,",G",0.0,",G",0.0,",G",31.0,",G",18.0,",G",19610111.0,",,G",,,,,,,,,19610116.0,"+,,G",12.3,",G,11,",,,,,,,39.6,",G,16,+",0.0,G,0.0,",G",,,,,26.83,",G",32.71,",,,G",20.95,",,,G",,,,,,,,,,,,,,,,,,,,,,,,,,,,,,,,,,,,,,,,,,,,,,,,,,
AR000087344,1956-02,-31.317,-64.217,489.0,"CORDOBA AERO, AR",,,103.5,"1,G",,,,,,,,,,,0.0,"1,G",0.0,"1,G",0.0,"1,G",27.0,"1,G",8.0,"1,G",19560206.0,",1,G",,,,,,,,,19560220.0,",1,G",4.4,"1,G,06,",,,,,,,38.0,"1,G,20,",,,7.0,"1,G",,,,,21.78,"1,G",29.31,"1,,,G",14.25,"1,,,G",,,,,,,,,,,,,,,,,,,,,,,,,,,,,,,,,,,,,,,,,,,,,,,,,,
AR000087374,1956-02,-31.783,-60.483,74.0,"PARANA AERO, AR",,,101.7,",G",,,,,,,,,,,0.0,",G",0.0,",G",0.0,",G",29.0,",G",3.0,",G",19560216.0,",,G",,,,,,,,,19560220.0,",,G",11.0,",G,16,",,,,,,,35.6,",G,20,",,,0.0,",G",,,,,21.84,",G",27.88,",,,G",15.81,",,,G",,,,,,,,,,,,,,,,,,,,,,,,,,,,,,,,,,,,,,,,,,,,,,,,,,
AR000087418,1959-12,-32.833,-68.783,704.0,"MENDOZA AERO, AR",,,178.2,"1,G",,,,,,,,,,,0.0,"1,G",0.0,"1,G",0.0,",G",31.0,",G",11.0,",G",19591207.0,",1,G",,,,,,,,,19591227.0,",,G",11.0,"1,G,07,",,,,,,,38.3,",G,27,",,,0.0,",G",,,,,24.26,"1,G",31.36,",,,G",17.17,"1,,,G",,,,,,,,,,,,,,,,,,,,,,,,,,,,,,,,,,,,,,,,,,,,,,,,,,
AR000087534,1950-01,-34.133,-63.367,137.0,"LABOULAYE AERO, AR",,,245.6,",G",,,,,,,,,,,0.0,",G",0.0,",G",0.0,",G",31.0,",G",26.0,",G",19500123.0,",,G",,,,,,,,,19500126.0,",,G",10.2,",G,23,",,,,,,,42.8,",G,26,",0.0,G,0.0,",G",,,,,26.26,",G",35.78,",,,G",16.74,",,,G",,,,,,,,,,,,,,,,,,,,,,,,,,,,,,,,,,,,,,,,,,,,,,,,,,
AR000087623,1951-01,-36.567,-64.266,192.0,"SANTA ROSA AERO, AR",,,179.4,",G",,,,,,,,,,,0.0,",G",0.0,",G",0.0,",G",31.0,",G",17.0,",G",19510122.0,",,G",,,,,,,,,19510116.0,",,G",3.7,",G,22,",,,,,,,39.4,",G,16,",5.3,G,5.3,",G",,,,,23.95,",G",32.28,",,,G",15.61,",,,G",,,,,,,,,,,,,,,,,,,,,,,,,,,,,,,,,,,,,,,,,,,,,,,,,,
AR000087692,1956-02,-37.933,-57.583,22.0,"MAR DEL PLATA AERO, AR",,,37.0,",G",,,,,,,,,,,0.0,",G",0.0,",G",0.0,",G",25.0,",G",4.0,",G",19560206.0,",,G",,,,,,,,,19560203.0,",,G",3.1,",G,06,",,,,,,,33.8,",G,03,",,,44.4,",G",,,,,18.08,",G",24.94,",,,G",11.21,",,,G",,,,,,,,,,,,,,,,,,,,,,,,,,,,,,,,,,,,,,,,,,,,,,,,,,
AR000087715,1956-08,-38.95,-68.133,273.0,"NEUQUEN AERO, AR",,,,,,,,,,,,,,,,,,,0.0,",G",7.0,",G",0.0,",G",,,,,,,,,,,19560824.0,",,G",,,,,,,,,24.6,",G,24,",,,,,,,,,,,16.83,",,,G",,,,,,,,,,,,,,,,,,,,,,,,,,,,,,,,,,,,,,,,,,,,,,,,,,,,
AR000087803,1957-07,-42.933,-71.15,799.0,"ESQUEL AERO, AR",,,,,,,,,,,,,,,0.0,"1,I",25.0,"1,I",,,,,,,19570730.0,",1,I",,,,,,,,,,,-16.1,"1,I,30,",,,,,,,,,,,,,,,,,,,,,-3.84,"1,,,I",,,,,,,,,,,,,,,,,,,,,,,,,,,,,,,,,,,,,,,,,,,,,,,,,,
AR000087828,1956-02,-43.2,-65.266,43.0,"TRELEW AERO, AR",,,70.3,"1,G",,,,,,,,,,,0.0,"1,G",0.0,"1,G",0.0,"1,G",23.0,"1,G",5.0,"1,G",19560228.0,",1,G",,,,,,,,,19560209.0,",1,G",5.0,"1,G,28,",,,,,,,38.4,"1,G,09,",,,27.5,"1,G",,,,,19.86,"1,G",27.24,"1,,,G",12.48,"1,,,G",,,,,,,,,,,,,,,,,,,,,,,,,,,,,,,,,,,,,,,,,,,,,,,,,,
AR000087860,1956-02,-45.783,-67.5,58.0,"COMODORO RIVADAVIA, AR",,,47.7,",G",,,,,,,,,,,0.0,",G",0.0,",G",0.0,",G",22.0,",G",1.0,",G",19560205.0,",,G",,,,,,,,,19560202.0,",,G",7.0,",G,05,",,,,,,,32.5,",G,02,",,,43.7,",G",,,,,18.47,",G",24.76,",,,G",12.18,",,,G",,,,,,,,,,,,,,,,,,,,,,,,,,,,,,,,,,,,,,,,,,,,,,,,,,
AR000087925,1956-02,-51.617,-69.283,19.0,"RIO GALLEGOS AERO, AR",,,2.5,",G",,,,,,,,,,,0.0,",G",0.0,",G",0.0,",G",3.0,",G",0.0,",G",19560221.0,",,G",,,,,,,,,19560209.0,",,G",1.7,",G,21,",,,,,,,29.0,",G,09,",,,203.1,",G",,,,,11.42,",G",17.02,",,,G",5.81,",,,G",,,,,,,,,,,,,,,,,,,,,,,,,,,,,,,,,,,,,,,,,,,,,,,,,,
AR000870470,1956-02,-24.85,-65.483,1246.0,"SALTA AERO, AR",,,45.1,",G",,,,,,,,,,,0.0,",G",0.0,",G",0.0,",G",25.0,",G",0.0,",G",19560229.0,",,G",,,,,,,,,19560227.0,",,G",7.7,",G,29,",,,,,,,29.8,",G,27,",,,13.5,",G",,,,,19.42,",G",25.14,",,,G",13.71,",,,G",,,,,,,,,,,,,,,,,,,,,,,,,,,,,,,,,,,,,,,,,,,,,,,,,,
AR000873050,1956-10,-30.25,-68.75,1175.0,"JACHAL, AR",,,,,,,,,,,,,,,0.0,",",14.0,",G",,,,,,,19561023.0,",,G",,,,,,,,,,,-5.5,",G,23,",,,,,,,,,,,,,,,,,,,,,0.87,",,,G",,,,,,,,,,,,,,,,,,,,,,,,,,,,,,,,,,,,,,,,,,,,,,,,,,
AR000875440,1959-01,-35.867,-61.9,85.0,"PEHUAJO AERO, AR",,,83.4,"1,G",,,,,,,,,,,0.0,",G",0.0,",G",0.0,"1,G",29.0,"1,G",4.0,"1,G",19590117.0,",,G",,,,,,,,,19590113.0,",1,G",5.9,",G,17,",,,,,,,34.6,"1,G,13,",16.7,G,16.7,"1,G",,,,,20.53,"1,G",27.91,"1,,,G",13.15,",,,G",,,,,,,,,,,,,,,,,,,,,,,,,,,,,,,,,,,,,,,,,,,,,,,,,,
AR000875850,1908-09,-34.583,-58.483,25.0,"BUENOS AIRES OBSERV, AR",,,1.1,"1,G",,,,,,,,,,,0.0,"1,G",0.0,"1,G",0.0,"1,G",2.0,"1,G",0.0,"1,G",19080929.0,"+,1,G",,,,,,,,,19080927.0,",1,G",2.7,"1,G,29,+",,,,,,,23.8,"1,G,27,",,,166.1,"1,G",,,,,12.64,"1,G",17.52,"1,,,G",7.77,"1,,,G",,,,,,,,,,,,,,,,,,,,,,,,,,,,,,,,,,,,,,,,,,,,,,,,,,
AR000877500,1956-02,-38.733,-62.167,75.0,"BAHIA BLANCA AERO, AR",,,120.6,"2,G",,,,,,,,,,,0.0,"2,G",0.0,"2,G",0.0,"2,G",27.0,"2,G",12.0,"2,G",19560215.0,",2,G",,,,,,,,,19560203.0,",2,G",5.2,"2,G,15,",,,,,,,39.5,"2,G,03,",,,9.3,"2,G",,,,,22.45,"2,G",30.66,"2,,,G",14.24,"2,,,G",,,,,,,,,,,,,,,,,,,,,,,,,,,,,,,,,,,,,,,,,,,,,,,,,,
ARM00087016,1962-12,-23.153,-64.329,356.0,"ORAN, AR",,,,,19.0,"5,S",10.0,"5,S",3.0,"5,S",,,,,,,,,,,,,,,,,,,,,,,19621203.0,",5,S",,,,,,,,,39.1,"5,,S,03,",,,,,,,181.4,"5,,,S",,,,,,,,,,,,,,,,,,,,,,,,,,,,,,,,,,,,,,,,,,,,,,,,,,,,,,,,,,
ARM00087022,1977-11,-22.62,-63.794,449.0,"GENERAL ENRIQUE MOSCONI TARTA, AR",,,,,6.0,"5,S",5.0,"5,S",3.0,"5,S",,,,,,,,,,,,,,,,,,,,,,,19771103.0,",5,S",,,,,,,,,39.9,"5,,S,03,",,,,,,,124.9,"5,,,S",,,,,,,,,,,,,,,,,,,,,,,,,,,,,,,,,,,,,,,,,,,,,,,,,,,,,,,,,,
ARM00087046,1973-05,-24.393,-65.098,920.2,"JUJUY, AR",,,,,,,,,,,,,,,0.0,"2,",0.0,"2,S",,,,,,,19730505.0,"+,2,S",,,,,,,,,,,4.0,"2,S,05,+",,,,,,,,,,,,,,,,,,,,,9.28,"2,,,S",,,,,,,,,,,,,,,,,,,,,,,,,,,,,,,,,,,,,,,,,,,,,,,,,,
ARM00087121,1981-12,-26.841,-65.105,455.7,"TENIENTE BENJAMIN MATIENZO, AR",,,,,8.0,"2,S",6.0,"2,S",2.0,"2,S",,,,,,,,,,,,,,,,,,,,,,,19811215.0,",2,S",,,,,,,,,35.1,"2,,S,15,",,,,,,,111.3,"2,,,S",,,,,,,,,,,,,,,,,,,,,,,,,,,,,,,,,,,,,,,,,,,,,,,,,,,,,,,,,,
ARM00087148,2003-02,-26.733,-60.483,93.0,"PRESIDENCIA ROQUE SAENZ PENA, AR",,,,,4.0,"3,S",4.0,"3,S",0.0,"3,S",,,,,0.0,"3,S",0.0,"3,S",,,,,,,20030218.0,",3,S",,,,,,,20030211.0,"+,3,S",,,13.0,"3,S,18,",,,,,20.1,"3,,S,11,+",,,,,,,62.3,"3,,,S",,,,,,,21.61,"3,,,S",,,,,,,,,,,,,,,,,,,,,,,,,,,,,,,,,,,,,,,,,,,,,,,,,,
ARM00087162,1973-06,-26.213,-58.228,59.1,"FORMOSA, AR",,,,,7.0,"5,S",3.0,"5,S",0.0,"5,S",,,,,,,,,,,,,,,,,,,,,,,19730605.0,",5,S",,,,,,,,,18.0,"5,,S,05,",,,,,,,43.7,"5,,,S",,,,,,,,,,,,,,,,,,,,,,,,,,,,,,,,,,,,,,,,,,,,,,,,,,,,,,,,,,
ARM00087166,1973-10,-27.446,-58.762,61.9,"CORRIENTES, AR",,,,,5.0,"3,S",5.0,"3,S",2.0,"3,S",,,,,,,,,,,,,,,,,,,,,,,19731005.0,",3,S",,,,,,,,,70.1,"3,,S,05,",,,,,,,140.0,"3,,,S",,,,,,,,,,,,,,,,,,,,,,,,,,,,,,,,,,,,,,,,,,,,,,,,,,,,,,,,,,
ARM00087178,1961-05,-27.386,-55.971,131.1,"POSADAS, AR",,,,,,,,,,,,,,,0.0,"5,S",0.0,"5,S",,,,,,,19610521.0,",5,S",,,,,,,,,,,5.0,"5,S,21,",,,,,,,,,,,,,,,,,,,,,13.28,"5,,,S",,,,,,,,,,,,,,,,,,,,,,,,,,,,,,,,,,,,,,,,,,,,,,,,,,
ARM00087213,1994-03,-29.233,-67.433,945.0,"CHILECITO AERO, AR",,,,,,,,,,,,,,,0.0,"5,S",0.0,"5,S",,,,,,,19940327.0,",5,S",,,,,,,,,,,10.8,"5,S,27,",,,,,,,,,,,,,,,,,,,,,15.69,"5,,,S",,,,,,,,,,,,,,,,,,,,,,,,,,,,,,,,,,,,,,,,,,,,,,,,,,
ARM00087222,1974-03,-28.596,-65.752,463.9,"CATAMARCA, AR",,,,,7.0,"4,S",6.0,"4,S",0.0,"4,S",,,,,,,,,,,,,,,,,,,,,,,19740311.0,",4,S",,,,,,,,,22.1,"4,,S,11,",,,,,,,54.4,"4,,,S",,,,,,,,,,,,,,,,,,,,,,,,,,,,,,,,,,,,,,,,,,,,,,,,,,,,,,,,,,
ARM00087244,1973-04,-29.9,-63.683,341.0,"VILLA MARIA DEL RIO, AR",,,,,,,,,,,,,,,0.0,"4,",0.0,"4,S",,,,,,,19730408.0,",4,S",,,,,,,,,,,5.0,"4,S,08,",,,,,,,,,,,,,,,,,,,,,12.85,"4,,,S",,,,,,,,,,,,,,,,,,,,,,,,,,,,,,,,,,,,,,,,,,,,,,,,,,
ARM00087289,1973-10,-29.689,-57.152,70.1,"PASO DE LOS LIBRES, AR",,,,,4.0,"4,S",4.0,"4,S",3.0,"4,S",,,,,,,,,,,,,,,,,,,,,,,19731023.0,",4,S",,,,,,,,,49.0,"4,,S,23,",,,,,,,131.1,"4,,,S",,,,,,,,,,,,,,,,,,,,,,,,,,,,,,,,,,,,,,,,,,,,,,,,,,,,,,,,,,
ARM00087311,1973-05,-31.571,-68.418,597.1,"SAN JUAN, AR",,,,,,,,,,,,,,,0.0,"4,S",4.0,"4,S",,,,,,,19730514.0,"+,4,S",,,,,,,,,,,0.0,"4,S,14,+",,,,,,,,,,,,,,,,,,,,,3.56,"4,,,S",,,,,,,,,,,,,,,,,,,,,,,,,,,,,,,,,,,,,,,,,,,,,,,,,,
ARM00087320,1977-04,-30.367,-66.283,461.0,"CHAMICAL AERO, AR",,,,,4.0,"5,S",4.0,"5,S",0.0,"5,S",,,,,,,,,,,,,,,,,,,,,,,19770407.0,",5,S",,,,,,,,,9.9,"5,,S,07,",,,,,,,30.0,"5,,,S",,,,,,,,,,,,,,,,,,,,,,,,,,,,,,,,,,,,,,,,,,,,,,,,,,,,,,,,,,
ARM00087322,1973-05,-31.333,-66.6,658.0,"CHEPES, AR",,,,,,,,,,,,,,,0.0,"5,",0.0,"5,S",,,,,,,19730510.0,",5,S",,,,,,,,,,,3.0,"5,S,10,",,,,,,,,,,,,,,,,,,,,,8.88,"5,,,S",,,,,,,,,,,,,,,,,,,,,,,,,,,,,,,,,,,,,,,,,,,,,,,,,,
ARM00087328,1973-05,-31.945,-65.146,583.7,"VILLA DOLORES, AR",,,,,,,,,,,,,,,0.0,"5,",0.0,"5,S",,,,,,,19730510.0,",5,S",,,,,,,,,,,1.0,"5,S,10,",,,,,,,,,,,,,,,,,,,,,7.35,"5,,,S",,,,,,,,,,,,,,,,,,,,,,,,,,,,,,,,,,,,,,,,,,,,,,,,,,
ARM00087345,2020-07,-31.4,-64.183,426.0,"CORDOBA OBSERVATORIO, AR",,,,,,,,,,,,,,,0.0,"1,S",5.0,"1,S",,,,,,,20200709.0,"+,1,S",,,,,,,,,,,-0.8,"1,S,09,+",,,,,,,,,,,,,,,,,,,,,2.53,"1,,,S",,,,,,,,,,,,,,,,,,,,,,,,,,,,,,,,,,,,,,,,,,,,,,,,,,
ARM00087349,1976-12,-31.667,-63.883,338.0,"PILAR OBSERVATORIO, AR",,,,,7.0,"3,S",6.0,"3,S",3.0,"3,S",,,,,,,,,,,,,,,,,,,,,,,19761207.0,",3,S",,,,,,,,,38.1,"3,,S,07,",,,,,,,136.4,"3,,,S",,,,,,,,,,,,,,,,,,,,,,,,,,,,,,,,,,,,,,,,,,,,,,,,,,,,,,,,,,
ARM00087395,1973-05,-31.297,-57.997,34.1,"COMODORO PIERRESTEGUI, AR",,,,,,,,,,,,,,,0.0,"1,",0.0,"1,S",,,,,,,19730513.0,",1,S",,,,,,,,,,,3.0,"1,S,13,",,,,,,,,,,,,,,,,,,,,,10.73,"1,,,S",,,,,,,,,,,,,,,,,,,,,,,,,,,,,,,,,,,,,,,,,,,,,,,,,,
ARM00087416,1979-12,-33.083,-68.417,653.0,"SAN MARTIN, AR",,,,,2.0,"5,S",1.0,"5,S",0.0,"5,S",,,,,,,,,,,,,,,,,,,,,,,19791218.0,",5,S",,,,,,,,,3.0,"5,,S,18,",,,,,,,3.3,"5,,,S",,,,,,,,,,,,,,,,,,,,,,,,,,,,,,,,,,,,,,,,,,,,,,,,,,,,,,,,,,
ARM00087420,2020-01,-32.883,-68.85,827.0,"MENDOZA OBSERVATORIO, AR",,,,,,,,,,,,,,,0.0,"1,",0.0,"1,S",,,,,,,20200106.0,",1,S",,,,,,,,,,,13.6,"1,S,06,",,,,,,,,,,,,,,,,,,,,,19.66,"1,,,S",,,,,,,,,,,,,,,,,,,,,,,,,,,,,,,,,,,,,,,,,,,,,,,,,,
ARM00087436,1957-07,-33.273,-66.356,709.9,"SAN LUIS, AR",,,,,,,,,,,,,,,0.0,",S",17.0,",S",,,,,,,19570731.0,"+,,S",,,,,,,,,,,-5.0,",S,31,+",,,,,,,,,,,,,,,,,,,,,1.24,",,,S",,,,,,,,,,,,,,,,,,,,,,,,,,,,,,,,,,,,,,,,,,,,,,,,,,
ARM00087448,1973-05,-33.73,-65.387,484.9,"VILLA REYNOLDS, AR",,,,,,,,,,,,,,,0.0,"1,",6.0,"1,S",,,,,,,19730506.0,",1,S",,,,,,,,,,,-5.0,"1,S,06,",,,,,,,,,,,,,,,,,,,,,3.67,"1,,,S",,,,,,,,,,,,,,,,,,,,,,,,,,,,,,,,,,,,,,,,,,,,,,,,,,
ARM00087453,1973-01,-33.085,-64.261,420.9,"RIO CUARTO AREA DE MATERIAL, AR",,,,,,,,,,,,,,,0.0,"5,",0.0,"5,S",,,,,,,19730124.0,"+,5,S",,,,,,,,,,,10.0,"5,S,24,+",,,,,,,,,,,,,,,,,,,,,17.54,"5,,,S",,,,,,,,,,,,,,,,,,,,,,,,,,,,,,,,,,,,,,,,,,,,,,,,,,
ARM00087467,1973-01,-32.684,-62.158,110.0,"MARCOS JUAREZ, AR",,,,,,,,,,,,,,,0.0,"4,",0.0,"4,S",,,,,,,19730124.0,",4,S",,,,,,,,,,,8.0,"4,S,24,",,,,,,,,,,,,,,,,,,,,,17.59,"4,,,S",,,,,,,,,,,,,,,,,,,,,,,,,,,,,,,,,,,,,,,,,,,,,,,,,,
ARM00087480,1968-01,-32.904,-60.785,25.9,"ROSARIO, AR",,,,,,,,,,,,,,,0.0,"2,S",0.0,"2,S",,,,,,,19680103.0,",2,S",,,,,,,,,,,8.9,"2,S,03,",,,,,,,,,,,,,,,,,,,,,16.29,"2,,,S",,,,,,,,,,,,,,,,,,,,,,,,,,,,,,,,,,,,,,,,,,,,,,,,,,
ARM00087497,1968-01,-33.01,-58.613,22.9,"GUALEGUAYCHU, AR",,,,,,,,,,,,,,,0.0,"4,S",0.0,"4,S",,,,,,,19680103.0,",4,S",,,,,,,,,,,8.9,"4,S,03,",,,,,,,,,,,,,,,,,,,,,17.49,"4,,,S",,,,,,,,,,,,,,,,,,,,,,,,,,,,,,,,,,,,,,,,,,,,,,,,,,
ARM00087506,1968-05,-35.494,-69.574,1430.1,"MALARGUE, AR",,,,,,,,,,,,,,,0.0,"4,S",14.0,"4,S",,,,,,,19680516.0,"+,4,S",,,,,,,,,,,-7.8,"4,S,16,+",,,,,,,,,,,,,,,,,,,,,0.59,"4,,,S",,,,,,,,,,,,,,,,,,,,,,,,,,,,,,,,,,,,,,,,,,,,,,,,,,
ARM00087509,1973-05,-34.588,-68.403,752.9,"SAN RAFAEL, AR",,,,,,,,,,,,,,,0.0,"3,",5.0,"3,S",,,,,,,19730511.0,",3,S",,,,,,,,,,,-1.0,"3,S,11,",,,,,,,,,,,,,,,,,,,,,3.61,"3,,,S",,,,,,,,,,,,,,,,,,,,,,,,,,,,,,,,,,,,,,,,,,,,,,,,,,
ARM00087532,1973-10,-35.696,-63.758,139.9,"GENERAL PICO, AR",,,,,9.0,"2,S",7.0,"2,S",1.0,"2,S",,,,,,,,,,,,,,,,,,,,,,,19731021.0,",2,S",,,,,,,,,37.1,"2,,S,21,",,,,,,,106.5,"2,,,S",,,,,,,,,,,,,,,,,,,,,,,,,,,,,,,,,,,,,,,,,,,,,,,,,,,,,,,,,,
ARM00087548,1968-01,-34.546,-60.931,79.9,"JUNIN, AR",,,,,,,,,,,,,,,0.0,"5,S",0.0,"5,S",0.0,"5,S",26.0,"5,S",17.0,"5,S",19680103.0,",5,S",,,,,,,,,19680118.0,",5,S",6.1,"5,S,03,",,,,,,,37.2,"5,S,18,",,,,,,,,,23.79,"9,S",32.4,"5,,,S",15.19,"5,,,S",,,,,,,,,,,,,,,,,,,,,,,,,,,,,,,,,,,,,,,,,,,,,,,,,,
ARM00087550,1981-01,-35.45,-60.883,76.0,"NUEVE DE JULIO, AR",,,,,10.0,"4,S",10.0,"4,S",3.0,"4,S",,,,,,,,,,,,,,,,,,,,,,,19810119.0,",4,S",,,,,,,,,89.9,"4,,S,19,",,,,,,,267.9,"4,,,S",,,,,,,,,,,,,,,,,,,,,,,,,,,,,,,,,,,,,,,,,,,,,,,,,,,,,,,,,,
ARM00087563,1989-09,-36.067,-59.1,38.0,"LAS FLORES, AR",,,,,,,,,,,,,,,0.0,"4,S",9.0,"4,S",,,,,,,19890916.0,",4,S",,,,,,,,,,,-5.6,"4,S,16,",,,,,,,,,,,,,,,,,,,,,1.82,"4,,,S",,,,,,,,,,,,,,,,,,,,,,,,,,,,,,,,,,,,,,,,,,,,,,,,,,
ARM00087576,1957-07,-34.822,-58.536,20.4,"MINISTRO PISTARINI, AR",,,,,,,,,,,,,,,0.0,"2,S",13.0,"2,S",,,,,,,19570714.0,",2,S",,,,,,,,,,,-3.9,"2,S,14,",,,,,,,,,,,,,,,,,,,,,3.18,"2,,,S",,,,,,,,,,,,,,,,,,,,,,,,,,,,,,,,,,,,,,,,,,,,,,,,,,
ARM00087582,1973-10,-34.559,-58.416,5.5,"AEROPARQUE JORGE NEWBERY, AR",,,,,7.0,"4,S",5.0,"4,S",2.0,"4,S",,,,,,,,,,,,,,,,,,,,,,,19731010.0,",4,S",,,,,,,,,31.0,"4,,S,10,",,,,,,,103.5,"4,,,S",,,,,,,,,,,,,,,,,,,,,,,,,,,,,,,,,,,,,,,,,,,,,,,,,,,,,,,,,,
ARM00087593,1977-08,-34.972,-57.895,21.9,"LA PLATA, AR",,,,,4.0,"4,S",3.0,"4,S",0.0,"4,S",,,,,,,,,,,,,,,,,,,,,,,19770811.0,",4,S",,,,,,,,,20.1,"4,,S,11,",,,,,,,43.5,"4,,,S",,,,,,,,,,,,,,,,,,,,,,,,,,,,,,,,,,,,,,,,,,,,,,,,,,,,,,,,,,
ARM00087596,1957-07,-35.367,-57.283,22.0,"PUNTA INDIO B.A., AR",,,,,,,,,,,,,,,0.0,",S",9.0,",S",,,,,,,19570714.0,",,S",,,,,,,,,,,-3.9,",S,14,",,,,,,,,,,,,,,,,,,,,,3.75,",,,S",,,,,,,,,,,,,,,,,,,,,,,,,,,,,,,,,,,,,,,,,,,,,,,,,,
ARM00087637,1979-10,-37.433,-61.883,233.0,"CORONEL SUAREZ AERO, AR",,,,,6.0,"4,S",4.0,"4,S",0.0,"4,S",,,,,0.0,"5,S",0.0,"5,S",,,,,,,19791009.0,",5,S",,,,,,,19791004.0,",4,S",,,1.0,"5,S,09,",,,,,11.9,"4,,S,04,",,,,,,,32.9,"4,,,S",,,,,,,7.77,"5,,,S",,,,,,,,,,,,,,,,,,,,,,,,,,,,,,,,,,,,,,,,,,,,,,,,,,
ARM00087640,1992-12,-36.2,-61.067,94.0,"BOLIVAR AERO, AR",,,,,,,,,,,,,,,0.0,"3,S",0.0,"3,S",,,,,,,19921201.0,",3,S",,,,,,,,,,,8.1,"3,S,01,",,,,,,,,,,,,,,,,,,,,,13.63,"3,,,S",,,,,,,,,,,,,,,,,,,,,,,,,,,,,,,,,,,,,,,,,,,,,,,,,,
ARM00087641,2001-08,-36.833,-59.883,147.0,"AZUL AERO, AR",,,,,,,,,,,,,,,0.0,"3,S",0.0,"3,S",,,,,,,20010828.0,",3,S",,,,,,,,,,,1.1,"3,S,28,",,,,,,,,,,,,,,,,,,,,,6.73,"3,,,S",,,,,,,,,,,,,,,,,,,,,,,,,,,,,,,,,,,,,,,,,,,,,,,,,,
ARM00087643,1992-12,-36.883,-60.217,166.0,"OLAVARRIA AERO, AR",,,,,,,,,,,,,,,0.0,"5,S",0.0,"5,S",,,,,,,19921202.0,",5,S",,,,,,,,,,,4.4,"5,S,02,",,,,,,,,,,,,,,,,,,,,,11.53,"5,,,S",,,,,,,,,,,,,,,,,,,,,,,,,,,,,,,,,,,,,,,,,,,,,,,,,,
ARM00087645,1973-01,-37.237,-59.228,175.0,"TANDIL, AR",,,,,,,,,,,,,,,0.0,"5,",0.0,"5,S",,,,,,,19730108.0,"+,5,S",,,,,,,,,,,4.0,"5,S,08,+",,,,,,,,,,,,,,,,,,,,,12.35,"5,,,S",,,,,,,,,,,,,,,,,,,,,,,,,,,,,,,,,,,,,,,,,,,,,,,,,,
ARM00087648,1973-04,-36.35,-57.733,9.0,"DOLORES AIRPORT, AR",,,,,,,,,,,,,,,0.0,"4,",0.0,"4,S",,,,,,,19730416.0,",4,S",,,,,,,,,,,1.0,"4,S,16,",,,,,,,,,,,,,,,,,,,,,8.81,"4,,,S",,,,,,,,,,,,,,,,,,,,,,,,,,,,,,,,,,,,,,,,,,,,,,,,,,
ARM00087679,1977-04,-37.6,-62.383,304.0,"PIGUE AIRPORT, AR",,,,,4.0,"4,S",4.0,"4,S",0.0,"4,S",,,,,,,,,,,,,,,,,,,,,,,19770408.0,",4,S",,,,,,,,,20.1,"4,,S,08,",,,,,,,32.3,"4,,,S",,,,,,,,,,,,,,,,,,,,,,,,,,,,,,,,,,,,,,,,,,,,,,,,,,,,,,,,,,
ARM00087688,1973-05,-38.387,-60.33,121.9,"TRES ARROYOS, AR",,,,,,,,,,,,,,,0.0,"5,",7.0,"5,S",,,,,,,19730512.0,",5,S",,,,,,,,,,,-4.0,"5,S,12,",,,,,,,,,,,,,,,,,,,,,3.54,"5,,,S",,,,,,,,,,,,,,,,,,,,,,,,,,,,,,,,,,,,,,,,,,,,,,,,,,
ARM00087736,1980-12,-39.017,-64.083,79.0,"RIO COLORADO, AR",,,,,7.0,"1,S",5.0,"1,S",0.0,"1,S",,,,,0.0,"2,S",0.0,"2,S",,,,,,,19801220.0,",2,S",,,,,,,19801204.0,",1,S",,,5.0,"2,S,20,",,,,,14.0,"1,,S,04,",,,,,,,52.7,"1,,,S",,,,,,,15.24,"2,,,S",,,,,,,,,,,,,,,,,,,,,,,,,,,,,,,,,,,,,,,,,,,,,,,,,,
ARM00087765,1957-07,-41.151,-71.158,846.1,"SAN CARLOS DE BARILOCHE, AR",,,,,,,,,,,,,,,0.0,"5,S",19.0,"5,S",,,,,,,19570730.0,",5,S",,,,,,,,,,,-12.2,"5,S,30,",,,,,,,,,,,,,,,,,,,,,-2.37,"5,,,S",,,,,,,,,,,,,,,,,,,,,,,,,,,,,,,,,,,,,,,,,,,,,,,,,,
ARM00087774,1957-10,-41.25,-68.733,888.0,"MAQUINCHAO, AR",,,,,,,,,,,,,,,0.0,"2,S",16.0,"2,S",,,,,,,19571009.0,",2,S",,,,,,,,,,,-8.9,"2,S,09,",,,,,,,,,,,,,,,,,,,,,-0.02,"2,,,S",,,,,,,,,,,,,,,,,,,,,,,,,,,,,,,,,,,,,,,,,,,,,,,,,,
ARM00087784,1973-10,-40.783,-65.1,20.0,"SAN ANTONIO OESTE AERO, AR",,,,,6.0,"4,S",4.0,"4,S",0.0,"4,S",,,,,,,,,,,,,,,,,,,,,,,19731031.0,",4,S",,,,,,,,,8.9,"4,,S,31,",,,,,,,31.3,"4,,,S",,,,,,,,,,,,,,,,,,,,,,,,,,,,,,,,,,,,,,,,,,,,,,,,,,,,,,,,,,
ARM00087791,1973-05,-40.869,-63.0,6.1,"GOBERNADOR CASTELLO, AR",,,,,,,,,,,,,,,0.0,"5,",9.0,"5,S",,,,,,,19730511.0,",5,S",,,,,,,,,,,-3.0,"5,S,11,",,,,,,,,,,,,,,,,,,,,,2.81,"5,,,S",,,,,,,,,,,,,,,,,,,,,,,,,,,,,,,,,,,,,,,,,,,,,,,,,,
ARM00087800,1997-09,-41.943,-71.532,344.7,"EL BOLSON, AR",,,,,,,,,,,,,,,0.0,"5,S",16.0,"5,S",,,,,,,19970926.0,",5,S",,,,,,,,,,,-3.0,"5,S,26,",,,,,,,,,,,,,,,,,,,,,-0.07,"5,,,S",,,,,,,,,,,,,,,,,,,,,,,,,,,,,,,,,,,,,,,,,,,,,,,,,,
ARM00087814,1979-12,-43.817,-68.883,460.0,"PASO DE INDIOS, AR",,,,,5.0,"5,S",1.0,"5,S",0.0,"5,S",,,,,,,,,,,,,,,,,,,,,,,19791206.0,",5,S",,,,,,,,,4.1,"5,,S,06,",,,,,,,6.9,"5,,,S",,,,,,,,,,,,,,,,,,,,,,,,,,,,,,,,,,,,,,,,,,,,,,,,,,,,,,,,,,
ARM00087823,2020-07,-42.733,-65.067,136.0,"P.MADRYN AERO, AR",,,,,,,,,,,,,,,0.0,"4,S",12.0,"4,S",,,,,,,20200714.0,",4,S",,,,,,,,,,,-4.2,"4,S,14,",,,,,,,,,,,,,,,,,,,,,0.3,"4,,,S",,,,,,,,,,,,,,,,,,,,,,,,,,,,,,,,,,,,,,,,,,,,,,,,,,
ARM00087852,1990-03,-46.517,-71.017,429.0,"PERITO MORENO AIRPORT, AR",,,,,,,,,,,,,,,0.0,"5,S",0.0,"5,S",,,,,,,19900302.0,",5,S",,,,,,,,,,,0.8,"5,S,02,",,,,,,,,,,,,,,,,,,,,,7.04,"5,,,S",,,,,,,,,,,,,,,,,,,,,,,,,,,,,,,,,,,,,,,,,,,,,,,,,,
ARM00087880,1978-11,-48.783,-70.167,356.0,"GOBERNADOR GREGORES, AR",,,,,6.0,"5,S",2.0,"5,S",0.0,"5,S",,,,,,,,,,,,,,,,,,,,,,,19781108.0,",5,S",,,,,,,,,24.9,"5,,S,08,",,,,,,,49.0,"5,,,S",,,,,,,,,,,,,,,,,,,,,,,,,,,,,,,,,,,,,,,,,,,,,,,,,,,,,,,,,,
ARM00087896,1968-09,-47.735,-65.904,81.1,"PUERTO DESEADO, AR",,,,,,,,,,,,,,,0.0,"4,S",5.0,"4,S",,,,,,,19680901.0,",4,S",,,,,,,,,,,-5.0,"4,S,01,",,,,,,,,,,,,,,,,,,,,,2.05,"4,,,S",,,,,,,,,,,,,,,,,,,,,,,,,,,,,,,,,,,,,,,,,,,,,,,,,,
ARM00087903,1979-11,-50.333,-72.3,220.0,"LAGO ARGENTINO AIRPORT, AR",,,,,4.0,"2,S",3.0,"2,S",0.0,"2,S",,,,,0.0,"4,",4.0,"4,S",,,,,,,19791107.0,"+,4,S",,,,,,,19791111.0,",2,S",,,-1.0,"4,S,07,+",,,,,10.9,"2,,S,11,",,,,,,,22.0,"2,,,S",,,,,,,4.62,"4,,,S",,,,,,,,,,,,,,,,,,,,,,,,,,,,,,,,,,,,,,,,,,,,,,,,,,
ARM00087904,2003-04,-50.267,-72.05,204.0,"EL CALAFATE AERO, AR",,,,,5.0,"4,S",4.0,"4,S",0.0,"4,S",,,,,0.0,"1,S",15.0,"1,S",,,,,,,20030424.0,"+,1,S",,,,,,,20030415.0,",4,S",,,-4.6,"1,S,24,+",,,,,9.9,"4,,S,15,",,,,,,,27.4,"4,,,S",,,,,,,-0.23,"1,,,S",,,,,,,,,,,,,,,,,,,,,,,,,,,,,,,,,,,,,,,,,,,,,,,,,,
ARM00087909,1973-01,-49.307,-67.803,57.9,"SAN JULIAN, AR",,,,,,,,,,,,,,,0.0,"5,S",0.0,"5,S",,,,,,,19730127.0,"+,5,S",,,,,,,,,,,4.0,"5,S,27,+",,,,,,,,,,,,,,,,,,,,,7.81,"5,,,S",,,,,,,,,,,,,,,,,,,,,,,,,,,,,,,,,,,,,,,,,,,,,,,,,,
ARM00087934,1977-09,-53.778,-67.749,19.8,"RIO GRANDE, AR",,,,,6.0,"3,S",3.0,"3,S",0.0,"3,S",,,,,,,,,,,,,,,,,,,,,,,19770921.0,",3,S",,,,,,,,,7.1,"3,,S,21,",,,,,,,21.2,"3,,,S",,,,,,,,,,,,,,,,,,,,,,,,,,,,,,,,,,,,,,,,,,,,,,,,,,,,,,,,,,
ARM00087938,1957-07,-54.843,-68.296,21.6,"USHUAIA MALVINAS ARGENTINAS, AR",,,,,,,,,,,,,,,0.0,"3,S",22.0,"3,S",,,,,,,19570711.0,",3,S",,,,,,,,,,,-12.2,"3,S,11,",,,,,,,,,,,,,,,,,,,,,-3.39,"3,,,S",,,,,,,,,,,,,,,,,,,,,,,,,,,,,,,,,,,,,,,,,,,,,,,,,,
ASM00094275,1979-02,-18.3,143.55,295.0,"GEORGETOWN POST OFFICE, AS",,,,,15.0,"5,S",10.0,"5,S",6.0,"5,S",,,,,,,,,,,,,,,,,,,,,,,19790204.0,",5,S",,,,,,,,,75.9,"5,,S,04,",,,,,,,350.9,"5,,,S",,,,,,,,,,,,,,,,,,,,,,,,,,,,,,,,,,,,,,,,,,,,,,,,,,,,,,,,,,
ASM00094299,1948-01,-16.288,149.965,9.0,"WILLIS ISLAND, AS",,,305.7,",S",,,,,,,,,,,0.0,",S",0.0,",S",0.0,",S",31.0,",S",6.0,",S",19480112.0,",,S",,,,,,,,,19480126.0,"+,,S",22.8,",S,12,",,,,,,,32.2,",S,26,+",0.0,S,0.0,",S",,,,,28.2,",S",31.28,",,,S",25.11,",,,S",,,,,,,,,,,,,,,,,,,,,,,,,,,,,,,,,,,,,,,,,,,,,,,,,,
ASM00094940,1979-02,-35.083,150.8,85.0,"JERVIS BAY, AS",,,,,2.0,"4,S",0.0,"4,S",0.0,"4,S",,,,,,,,,,,,,,,,,,,,,,,19790227.0,",4,S",,,,,,,,,1.0,"4,,S,27,",,,,,,,1.3,"4,,,S",,,,,,,,,,,,,,,,,,,,,,,,,,,,,,,,,,,,,,,,,,,,,,,,,,,,,,,,,,
ASM00094995,1948-01,-31.542,159.079,7.0,"LORD HOWE ISLAND AERO, AS",,,,,,,,,,,,,,,,,,,0.0,"5,S",26.0,"5,S",0.0,"5,S",,,,,,,,,,,19480102.0,",5,S",,,,,,,,,27.2,"5,S,02,",,,,,,,,,,,24.27,"5,,,S",,,,,,,,,,,,,,,,,,,,,,,,,,,,,,,,,,,,,,,,,,,,,,,,,,,,
ASM00094998,1978-11,-54.499,158.937,8.3,"MACQUARIE ISLAND, AS",,,,,,,,,,,,,,,,,,,0.0,"4,S",0.0,"4,S",0.0,"4,S",,,,,,,,,,,19781129.0,"+,4,S",,,,,,,,,9.0,"4,S,29,+",,,,,,,,,,,6.15,"4,,,S",,,,,,,,,,,,,,,,,,,,,,,,,,,,,,,,,,,,,,,,,,,,,,,,,,,,
ASN00001000,1940-10,-16.2919,127.1956,320.0,"KARUNJIE, AS",,,,,1.0,",a",1.0,",a",1.0,",a",,,,,,,,,,,,,,,,,,,,,,,19401017.0,",,a",,,,,,,,,25.4,",,a,17,",,,,,,,25.4,",,,a",,,,,,,,,,,,,,,,,,,,,,,,,,,,,,,,,,,,,,,,,,,,,,,,,,,,,,,,,,
ASN00001001,1914-01,-15.1806,127.8456,2.0,"OOMBULGURRI, AS",,,,,22.0,",a",19.0,",a",7.0,",a",,,,,,,,,,,,,,,,,,,,,,,19140106.0,",,a",,,,,,,,,71.1,",,a,06,",,,,,,,487.4,",,,a",,,,,,,,,,,,,,,,,,,,,,,,,,,,,,,,,,,,,,,,,,,,,,,,,,,,,,,,,,
ASN00001003,1909-06,-14.1331,126.7158,5.0,"PAGO MISSION, AS",,,,,0.0,",a",0.0,",a",0.0,",a",,,,,,,,,,,,,,,,,,,,,,,19090630.0,"+,,a",,,,,,,,,0.0,",,a,30,+",,,,,,,0.0,",,,a",,,,,,,,,,,,,,,,,,,,,,,,,,,,,,,,,,,,,,,,,,,,,,,,,,,,,,,,,,
ASN00001004,1915-07,-15.4167,124.7167,47.0,"KUNMUNYA, AS",,,,,0.0,",a",0.0,",a",0.0,",a",,,,,,,,,,,,,,,,,,,,,,,19150731.0,"+,,a",,,,,,,,,0.0,",,a,31,+",,,,,,,0.0,",,,a",,,,,,,,,,,,,,,,,,,,,,,,,,,,,,,,,,,,,,,,,,,,,,,,,,,,,,,,,,
ASN00001005,1887-07,-15.4644,128.1,20.0,"WYNDHAM PORT, AS",,,,,0.0,",a",0.0,",a",0.0,",a",,,,,,,,,,,,,,,,,,,,,,,18870731.0,"+,,a",,,,,,,,,0.0,",,a,31,+",,,,,,,0.0,",,,a",,,,,,,,,,,,,,,,,,,,,,,,,,,,,,,,,,,,,,,,,,,,,,,,,,,,,,,,,,
ASN00001006,1750-03,-15.51,128.1503,3.8,"WYNDHAM AERO, AS",,,383.3,"2,a",12.0,"2,a",8.0,"2,a",5.0,"2,a",,,,,0.0,"2,a",0.0,"2,a",0.0,"2,a",29.0,"2,a",27.0,"2,a",17500315.0,",2,a",,,,,,,17500329.0,",2,a",17500302.0,",2,a",23.3,"2,a,15,",,,,,52.6,"2,,a,29,",40.9,"2,a,02,",,,0.0,"2,a",216.4,"2,,,a",,,31.55,"2,a",36.64,"2,,,a",26.46,"2,,,a",,,,,,,,,,,,,,,,,,,,,,,,,,,,,,,,,,,,,,,,,,,,,,,,,,
ASN00001007,1750-03,-13.7542,126.1485,6.0,"TROUGHTON ISLAND, AS",,,327.3,"2,a",8.0,"2,a",6.0,"2,a",1.0,"2,a",,,,,0.0,"2,a",0.0,"2,a",0.0,"2,a",29.0,"2,a",8.0,"2,a",17500308.0,",2,a",,,,,,,17500308.0,",2,a",17500305.0,",2,a",24.8,"2,a,08,",,,,,30.4,"2,,a,08,",32.7,"2,a,05,",,,0.0,"2,a",89.6,"2,,,a",,,29.62,"2,a",31.87,"2,,,a",27.37,"2,,,a",,,,,,,,,,,,,,,,,,,,,,,,,,,,,,,,,,,,,,,,,,,,,,,,,,
ASN00001008,1959-09,-16.3017,126.1825,640.0,"MOUNT ELIZABETH OLD SITE, AS",,,,,2.0,",a",1.0,",a",0.0,",a",,,,,,,,,,,,,,,,,,,,,,,19590930.0,",,a",,,,,,,,,11.7,",,a,30,",,,,,,,12.0,",,,a",,,,,,,,,,,,,,,,,,,,,,,,,,,,,,,,,,,,,,,,,,,,,,,,,,,,,,,,,,
ASN00001009,1961-08,-15.4875,124.5222,12.0,"KURI BAY, AS",,,,,0.0,",a",0.0,",a",0.0,",a",,,,,,,,,,,,,,,,,,,,,,,19610831.0,"+,,a",,,,,,,,,0.0,",,a,31,+",,,,,,,0.0,",,,a",,,,,,,,,,,,,,,,,,,,,,,,,,,,,,,,,,,,,,,,,,,,,,,,,,,,,,,,,,
ASN00001010,1750-03,-14.7883,126.4964,210.0,"THEDA, AS",,,,,17.0,"2,a",15.0,"2,a",2.0,"2,a",,,,,,,,,,,,,,,,,,,,,,,17500325.0,"+,2,a",,,,,,,,,40.0,"2,,a,25,+",,,,,,,182.0,"2,,,a",,,,,,,,,,,,,,,,,,,,,,,,,,,,,,,,,,,,,,,,,,,,,,,,,,,,,,,,,,
ASN00001011,1966-12,-16.0497,124.95,,"PANTA DOWNS, AS",,,,,7.0,",a",6.0,",a",2.0,",a",,,,,,,,,,,,,,,,,,,,,,,19661216.0,",,a",,,,,,,,,72.6,",,a,16,",,,,,,,154.6,",,,a",,,,,,,,,,,,,,,,,,,,,,,,,,,,,,,,,,,,,,,,,,,,,,,,,,,,,,,,,,
ASN00001012,1968-01,-14.7925,125.8258,315.0,"MITCHELL PLATEAU, AS",,,,,19.0,",a",17.0,",a",6.0,",a",,,,,,,,,,,,,,,,,,,,,,,19680120.0,",,a",,,,,,,,,75.7,",,a,20,",,,,,,,328.0,",,,a",,,,,,,,,,,,,,,,,,,,,,,,,,,,,,,,,,,,,,,,,,,,,,,,,,,,,,,,,,
ASN00001013,1968-04,-15.4872,128.1247,11.0,"WYNDHAM, AS",,,,,2.0,",a",1.0,",a",0.0,",a",,,,,,,,,,,,,,,,,,,,,,,19680427.0,",,a",,,,,,,,,7.6,",,a,27,",,,,,,,8.4,",,,a",,,,,,,,,,,,,,,,,,,,,,,,,,,,,,,,,,,,,,,,,,,,,,,,,,,,,,,,,,
ASN00001014,1750-03,-15.9078,128.1289,130.0,"EMMA GORGE, AS",,,,,15.0,"2,a",15.0,"2,a",4.0,"2,a",,,,,,,,,,,,,,,,,,,,,,,17500315.0,",2,a",,,,,,,,,50.6,"2,,a,15,",,,,,,,259.9,"2,,,a",,,,,,,,,,,,,,,,,,,,,,,,,,,,,,,,,,,,,,,,,,,,,,,,,,,,,,,,,,
ASN00001016,1971-01,-14.4861,126.7664,59.0,"CARSON RIVER STATION, AS",,,,,6.0,"2,a",6.0,"2,a",3.0,"2,a",,,,,,,,,,,,,,,,,,,,,,,19710118.0,",2,a",,,,,,,,,41.7,"2,,a,18,",,,,,,,164.9,",a,,a",,,,,,,,,,,,,,,,,,,,,,,,,,,,,,,,,,,,,,,,,,,,,,,,,,,,,,,,,,
ASN00001017,1923-05,-15.5,127.8333,,"NULLA NULLA, AS",,,,,1.0,",a",1.0,",a",1.0,",a",,,,,,,,,,,,,,,,,,,,,,,19230507.0,",,a",,,,,,,,,40.4,",,a,07,",,,,,,,40.4,",,,a",,,,,,,,,,,,,,,,,,,,,,,,,,,,,,,,,,,,,,,,,,,,,,,,,,,,,,,,,,
ASN00001018,1973-03,-16.4181,126.1025,546.0,"MOUNT ELIZABETH, AS",,,,,12.0,",a",9.0,",a",2.0,",a",,,,,,,,,,,,,,,,,,,,,,,19730309.0,",,a",,,,,,,,,111.8,",,a,09,",,,,,,,211.8,",,,a",,,,,,,,,,,,,,,,,,,,,,,,,,,,,,,,,,,,,,,,,,,,,,,,,,,,,,,,,,
ASN00001019,1750-03,-14.2964,126.6453,23.0,"KALUMBURU, AS",,,353.7,"2,a",16.0,"2,a",11.0,"2,a",1.0,"2,a",,,,,0.0,"2,a",0.0,"2,a",0.0,"2,a",29.0,"2,a",27.0,"2,a",17500328.0,",2,a",,,,,,,17500321.0,",2,a",17500317.0,",2,a",24.0,"2,a,28,",,,,,68.4,"2,,a,21,",39.8,"2,a,17,",,,0.0,"2,a",158.6,"2,,,a",,,30.53,"2,a",35.55,"2,,,a",25.51,"2,,,a",,,,,,,,,,,,,,,,,,,,,,,,,,,,,,,,,,,,,,,,,,,,,,,,,,
ASN00001020,1750-03,-14.09,126.3867,51.0,"TRUSCOTT, AS",,,327.1,"2,a",13.0,"3,a",11.0,"3,a",1.0,"3,a",,,,,0.0,"2,a",0.0,"2,a",0.0,"2,a",29.0,"2,a",25.0,"2,a",17500308.0,",2,a",,,,,,,17500320.0,",3,a",17500316.0,",2,a",23.6,"2,a,08,",,,,,33.4,"3,,a,20,",35.4,"2,a,16,",,,0.0,"2,a",92.6,"3,,,a",,,29.61,"2,a",33.06,"2,,,a",26.17,"2,,,a",,,,,,,,,,,,,,,,,,,,,,,,,,,,,,,,,,,,,,,,,,,,,,,,,,
ASN00001021,1941-09,-14.2961,126.6431,23.0,"KALUMBURU MISSION, AS",,,248.5,"2,a",0.0,",a",0.0,",a",0.0,",a",,,,,0.0,"1,a",0.0,"1,a",0.0,"2,a",28.0,"2,a",23.0,"2,a",19410914.0,",1,a",,,,,,,19410930.0,"+,,a",19410904.0,",2,a",15.3,"1,a,14,",,,,,0.0,",,a,30,+",38.4,"2,a,04,",,,0.0,"2,a",0.0,",,,a",,,27.2,"2,a",33.49,"2,,,a",20.91,"1,,,a",,,,,,,,,,,,,,,,,,,,,,,,,,,,,,,,,,,,,,,,,,,,,,,,,,
ASN00001022,1900-07,-15.4997,128.1997,,"WYNDHAM SIX MILE HOTEL, AS",,,,,0.0,",a",0.0,",a",0.0,",a",,,,,,,,,,,,,,,,,,,,,,,19000731.0,"+,,a",,,,,,,,,0.0,",,a,31,+",,,,,,,0.0,",,,a",,,,,,,,,,,,,,,,,,,,,,,,,,,,,,,,,,,,,,,,,,,,,,,,,,,,,,,,,,
ASN00001023,1750-03,-16.0086,127.9806,90.0,"EL QUESTRO, AS",,,,,10.0,"5,a",5.0,"5,a",1.0,"5,a",,,,,,,,,,,,,,,,,,,,,,,17500311.0,",5,a",,,,,,,,,28.0,"5,,a,11,",,,,,,,93.3,"2,a,,a",,,,,,,,,,,,,,,,,,,,,,,,,,,,,,,,,,,,,,,,,,,,,,,,,,,,,,,,,,
ASN00001024,1750-03,-15.9572,127.0628,300.0,"ELLENBRAE, AS",,,,,17.0,"2,a",13.0,"2,a",1.0,"2,a",,,,,,,,,,,,,,,,,,,,,,,17500320.0,",2,a",,,,,,,,,28.0,"2,,a,20,",,,,,,,152.2,"2,,,a",,,,,,,,,,,,,,,,,,,,,,,,,,,,,,,,,,,,,,,,,,,,,,,,,,,,,,,,,,
ASN00001025,1750-03,-15.3797,126.3114,385.0,"DOONGAN, AS",,,301.8,"2,a",14.0,"2,a",12.0,"2,a",3.0,"2,a",,,,,0.0,"2,a",0.0,"2,a",0.0,"2,a",29.0,"2,a",25.0,"2,a",17500325.0,",2,a",,,,,,,17500321.0,",2,a",17500316.0,"+,2,a",20.0,"2,a,25,",,,,,36.0,"2,,a,21,",37.0,"2,a,16,+",,,0.0,"2,a",202.5,"2,,,a",,,28.74,"2,a",34.02,"2,,,a",23.46,"2,,,a",,,,,,,,,,,,,,,,,,,,,,,,,,,,,,,,,,,,,,,,,,,,,,,,,,
ASN00001026,1750-03,-15.7025,126.3786,370.0,"DRYSDALE RIVER STATION, AS",,,,,15.0,"2,a",14.0,"2,a",2.0,"2,a",,,,,,,,,,,,,,,,,,,,,,,17500320.0,",2,a",,,,,,,,,33.0,"2,,a,20,",,,,,,,154.7,"2,,,a",,,,,,,,,,,,,,,,,,,,,,,,,,,,,,,,,,,,,,,,,,,,,,,,,,,,,,,,,,
ASN00001027,1750-03,-15.6394,128.0803,14.0,"DIGGERS REST, AS",,,,,,,,,,,,,,,,,,,,,,,,,,,,,,,,,,,,,,,,,,,,,,,,,,,301.2,"2,a,,a",,,,,,,,,,,,,,,,,,,,,,,,,,,,,,,,,,,,,,,,,,,,,,,,,,,,,,,,,,
ASN00001028,1991-08,-15.7231,127.8297,10.0,"HOME VALLEY, AS",,,,,0.0,",a",0.0,",a",0.0,",a",,,,,,,,,,,,,,,,,,,,,,,19910831.0,"+,,a",,,,,,,,,0.0,",,a,31,+",,,,,,,0.0,",,,a",,,,,,,,,,,,,,,,,,,,,,,,,,,,,,,,,,,,,,,,,,,,,,,,,,,,,,,,,,
ASN00001030,1996-01,-14.5786,125.9133,3.0,"KIMBERLEY COASTAL CAMP, AS",,,,,16.0,",a",10.0,",a",3.0,",a",,,,,,,,,,,,,,,,,,,,,,,19960114.0,",,a",,,,,,,,,47.4,",,a,14,",,,,,,,197.6,",,,a",,,,,,,,,,,,,,,,,,,,,,,,,,,,,,,,,,,,,,,,,,,,,,,,,,,,,,,,,,
ASN00001031,1750-03,-13.96,127.1964,60.0,"FARAWAY BAY, AS",,,,,8.0,"2,a",5.0,"2,a",1.0,"2,a",,,,,,,,,,,,,,,,,,,,,,,17500321.0,",2,a",,,,,,,,,73.4,"2,,a,21,",,,,,,,123.7,"2,,,a",,,,,,,,,,,,,,,,,,,,,,,,,,,,,,,,,,,,,,,,,,,,,,,,,,,,,,,,,,
ASN00001032,1997-08,-14.1472,126.6483,6.0,"MCGOWAN ISLAND, AS",,,,,0.0,",a",0.0,",a",0.0,",a",,,,,,,,,,,,,,,,,,,,,,,19970831.0,"+,,a",,,,,,,,,0.0,",,a,31,+",,,,,,,0.0,",,,a",,,,,,,,,,,,,,,,,,,,,,,,,,,,,,,,,,,,,,,,,,,,,,,,,,,,,,,,,,
